"ID","LATITUDE","LONGITUDE","Mun/UF","MUNICIPIO","UF","Valor"
"1","-9.82","-66.88","ACRELANDIA - AC","ACRELANDIA","AC","39560.038910508"
"2","-10.94","-69.56","ASSIS BRASIL - AC","ASSIS BRASIL","AC","17842.150988839"
"3","-11.01","-68.74","BRASILEIA - AC","BRASILEIA","AC","93373.39431323"
"4","-9.83","-67.95","BUJARI - AC","BUJARI","AC","28516.56749286"
"5","-10.57","-67.67","CAPIXABA - AC","CAPIXABA","AC","18886.455136104"
"6","-7.63","-72.67","CRUZEIRO DO SUL - AC","CRUZEIRO DO SUL","AC","364586.13831064"
"7","-11.02","-68.74","EPITACIOLANDIA - AC","EPITACIOLANDIA","AC","60489.739920769"
"8","-8.16","-70.35","FEIJO - AC","FEIJO","AC","140665.24787856"
"9","-9.43","-71.88","JORDAO - AC","JORDAO","AC","25407.154503166"
"10","-7.61","-72.89","MANCIO LIMA - AC","MANCIO LIMA","AC","55464.222446319"
"11","-8.83","-69.26","MANOEL URBANO - AC","MANOEL URBANO","AC","36200.02438698"
"12","-8.94","-72.79","MARECHAL THAUMATURGO - AC","MARECHAL THAUMATURGO","AC","50555.101062783"
"13","-10.27","-67.15","PLACIDO DE CASTRO - AC","PLACIDO DE CASTRO","AC","83591.738491223"
"14","-9.58","-67.53","PORTO ACRE - AC","PORTO ACRE","AC","51717.893964079"
"15","-8.26","-72.74","PORTO WALTER - AC","PORTO WALTER","AC","35809.977624542"
"16","-9.97","-67.81","RIO BRANCO - AC","RIO BRANCO","AC","1476048.6200057"
"17","-7.74","-72.64","RODRIGUES ALVES - AC","RODRIGUES ALVES","AC","54883.187572235"
"18","-9.43","-70.49","SANTA ROSA DO PURUS - AC","SANTA ROSA DO PURUS","AC","10990.219334904"
"19","-9.06","-68.65","SENA MADUREIRA - AC","SENA MADUREIRA","AC","155217.00548922"
"20","-10.15","-67.73","SENADOR GUIOMARD - AC","SENADOR GUIOMARD","AC","88074.579103305"
"21","-8.16","-70.76","TARAUACA - AC","TARAUACA","AC","152932.12746233"
"22","-10.65","-68.5","XAPURI - AC","XAPURI","AC","84617.850174034"
"23","-9.26","-37.93","AGUA BRANCA - AL","AGUA BRANCA","AL","114328.51313619"
"24","-9.68","-36.3","ANADIA - AL","ANADIA","AL","107939.82846746"
"25","-9.75","-36.66","ARAPIRACA - AL","ARAPIRACA","AL","1040633.6438575"
"26","-9.5","-36.02","ATALAIA - AL","ATALAIA","AL","256028.84361183"
"27","-9.4","-35.5","BARRA DE SANTO ANTONIO - AL","BARRA DE SANTO ANTONIO","AL","56980.261677616"
"28","-9.84","-35.9","BARRA DE SAO MIGUEL - AL","BARRA DE SAO MIGUEL","AL","37840.140710035"
"29","-9.67","-37.12","BATALHA - AL","BATALHA","AL","85456.720395317"
"30","-9.57","-36.49","BELEM - AL","BELEM","AL","35555.018594736"
"31","-9.82","-37.28","BELO MONTE - AL","BELO MONTE","AL","41688.04103437"
"32","-9.64","-36.22","BOCA DA MATA - AL","BOCA DA MATA","AL","133949.74741433"
"33","-9.24","-36.01","BRANQUINHA - AL","BRANQUINHA","AL","64397.619322342"
"34","-9.4","-36.99","CACIMBINHAS - AL","CACIMBINHAS","AL","59926.119390802"
"35","-9.39","-36.15","CAJUEIRO - AL","CAJUEIRO","AL","118961.22330606"
"36","-8.84","-35.56","CAMPESTRE - AL","CAMPESTRE","AL","43221.249140408"
"37","-9.78","-36.35","CAMPO ALEGRE - AL","CAMPO ALEGRE","AL","261420.06670902"
"38","-9.95","-36.79","CAMPO GRANDE - AL","CAMPO GRANDE","AL","63902.920100054"
"39","-9.12","-37.6","CANAPI - AL","CANAPI","AL","111852.944811"
"40","-9.4","-36.07","CAPELA - AL","CAPELA","AL","139295.54618091"
"41","-9.48","-37.37","CARNEIROS - AL","CARNEIROS","AL","37924.703650497"
"42","-9.25","-36.29","CHA PRETA - AL","CHA PRETA","AL","47759.937993043"
"43","-9.63","-36.57","COITE DO NOIA - AL","COITE DO NOIA","AL","65066.049549352"
"44","-8.9","-35.72","COLONIA LEOPOLDINA - AL","COLONIA LEOPOLDINA","AL","117899.27480507"
"45","-9.63","-35.8","COQUEIRO SECO - AL","COQUEIRO SECO","AL","34157.95789182"
"46","-10.12","-36.17","CORURIPE - AL","CORURIPE","AL","292231.01388048"
"47","-9.61","-36.76","CRAIBAS - AL","CRAIBAS","AL","117417.89335913"
"48","-9.38","-37.99","DELMIRO GOUVEIA - AL","DELMIRO GOUVEIA","AL","245993.54079854"
"49","-9.39","-37.1","DOIS RIACHOS - AL","DOIS RIACHOS","AL","71876.635975352"
"50","-9.39","-36.76","ESTRELA DE ALAGOAS - AL","ESTRELA DE ALAGOAS","AL","104154.58518981"
"51","-9.9","-36.67","FEIRA GRANDE - AL","FEIRA GRANDE","AL","126279.55958295"
"52","-10.29","-36.3","FELIZ DESERTO - AL","FELIZ DESERTO","AL","25815.504228461"
"53","-9.27","-35.71","FLEXEIRAS - AL","FLEXEIRAS","AL","76177.389697317"
"54","-9.88","-36.82","GIRAU DO PONCIANO - AL","GIRAU DO PONCIANO","AL","181129.17349246"
"55","-8.97","-35.93","IBATEGUARA - AL","IBATEGUARA","AL","97377.448556216"
"56","-9.53","-36.63","IGACI - AL","IGACI","AL","153070.71634132"
"57","-10.12","-36.66","IGREJA NOVA - AL","IGREJA NOVA","AL","134319.86223109"
"58","-9.21","-37.75","INHAPI - AL","INHAPI","AL","98409.712052117"
"59","-9.63","-37.2","JACARE DOS HOMENS - AL","JACARE DOS HOMENS","AL","31871.453806513"
"60","-8.84","-35.46","JACUIPE - AL","JACUIPE","AL","46227.545295775"
"61","-9.08","-35.25","JAPARATINGA - AL","JAPARATINGA","AL","41056.498746954"
"62","-9.65","-37","JARAMATAIA - AL","JARAMATAIA","AL","31131.712235824"
"63","-9.13","-35.74","JOAQUIM GOMES - AL","JOAQUIM GOMES","AL","128297.07092753"
"64","-8.93","-35.57","JUNDIA - AL","JUNDIA","AL","28772.123199258"
"65","-9.92","-36.47","JUNQUEIRO - AL","JUNQUEIRO","AL","142524.60175899"
"66","-9.83","-36.73","LAGOA DA CANOA - AL","LAGOA DA CANOA","AL","115758.75451368"
"67","-9.74","-36.5","LIMOEIRO DE ANADIA - AL","LIMOEIRO DE ANADIA","AL","122008.73573162"
"68","-9.66","-35.73","MACEIO - AL","MACEIO","AL","723230"
"69","-9.53","-36.98","MAJOR ISIDORO - AL","MAJOR ISIDORO","AL","115410.28490717"
"70","-9.44","-36.38","MAR VERMELHO - AL","MAR VERMELHO","AL","29782.231703063"
"71","-9.01","-35.22","MARAGOGI - AL","MARAGOGI","AL","101743.64043909"
"72","-9.23","-37.35","MARAVILHA - AL","MARAVILHA","AL","86998.228560824"
"73","-9.71","-35.89","MARECHAL DEODORO - AL","MARECHAL DEODORO","AL","175330.49146418"
"74","-9.57","-36.3","MARIBONDO - AL","MARIBONDO","AL","88605.364389805"
"75","-9.11","-37.73","MATA GRANDE - AL","MATA GRANDE","AL","167555.5760392"
"76","-9.15","-35.53","MATRIZ DE CAMARAGIBE - AL","MATRIZ DE CAMARAGIBE","AL","142500.62320022"
"77","-9.38","-35.84","MESSIAS - AL","MESSIAS","AL","70701.995620886"
"78","-9.3","-36.86","MINADOR DO NEGRAO - AL","MINADOR DO NEGRAO","AL","32898.474010306"
"79","-9.6","-37.24","MONTEIROPOLIS - AL","MONTEIROPOLIS","AL","42542.287421864"
"80","-9.3","-35.94","MURICI - AL","MURICI","AL","142537.85133568"
"81","-8.91","-35.64","NOVO LINO - AL","NOVO LINO","AL","71238.279946563"
"82","-9.53","-37.29","OLHO D'AGUA DAS FLORES - AL","OLHO D'AGUA DAS FLORES","AL","112223.26303961"
"83","-9.5","-37.83","OLHO D'AGUA DO CASADO - AL","OLHO D'AGUA DO CASADO","AL","41443.887987717"
"84","-10.05","-36.81","OLHO D'AGUA GRANDE - AL","OLHO D'AGUA GRANDE","AL","27696.591558072"
"85","-9.51","-37.19","OLIVENCA - AL","OLIVENCA","AL","64589.406292864"
"86","-9.16","-37.35","OURO BRANCO - AL","OURO BRANCO","AL","61094.590655158"
"87","-9.67","-37.32","PALESTINA - AL","PALESTINA","AL","26919.983574454"
"88","-9.4","-36.62","PALMEIRA DOS INDIOS - AL","PALMEIRA DOS INDIOS","AL","421030.24920166"
"89","-9.74","-37.43","PAO DE ACUCAR - AL","PAO DE ACUCAR","AL","162527.12029531"
"90","-9.25","-38","PARICONHA - AL","PARICONHA","AL","56773.868899399"
"91","-9.46","-35.55","PARIPUEIRA - AL","PARIPUEIRA","AL","43322.232852117"
"92","-9.23","-35.49","PASSO DE CAMARAGIBE - AL","PASSO DE CAMARAGIBE","AL","92366.276327125"
"93","-9.36","-36.37","PAULO JACINTO - AL","PAULO JACINTO","AL","61136.271943176"
"94","-10.29","-36.58","PENEDO - AL","PENEDO","AL","374739.21109934"
"95","-10.4","-36.43","PIACABUCU - AL","PIACABUCU","AL","98727.075093472"
"96","-9.59","-35.95","PILAR - AL","PILAR","AL","209352.66852128"
"97","-9.47","-36.29","PINDOBA - AL","PINDOBA","AL","21063.693739202"
"98","-9.62","-37.75","PIRANHAS - AL","PIRANHAS","AL","133323.35496974"
"99","-9.31","-37.28","POCO DAS TRINCHEIRAS - AL","POCO DAS TRINCHEIRAS","AL","74023.357551399"
"100","-9.04","-35.39","PORTO CALVO - AL","PORTO CALVO","AL","162082.68561604"
"101","-9.15","-35.29","PORTO DE PEDRAS - AL","PORTO DE PEDRAS","AL","69601.32786357"
"102","-10.18","-36.84","PORTO REAL DO COLEGIO - AL","PORTO REAL DO COLEGIO","AL","115353.91257119"
"103","-9.31","-36.47","QUEBRANGULO - AL","QUEBRANGULO","AL","79447.999250079"
"104","-9.47","-35.85","RIO LARGO - AL","RIO LARGO","AL","404505.72629757"
"105","-9.83","-35.97","ROTEIRO - AL","ROTEIRO","AL","44231.415998578"
"106","-9.6","-35.82","SANTA LUZIA DO NORTE - AL","SANTA LUZIA DO NORTE","AL","39357.296822582"
"107","-9.37","-37.24","SANTANA DO IPANEMA - AL","SANTANA DO IPANEMA","AL","236584.98940151"
"108","-9.16","-36.22","SANTANA DO MUNDAU - AL","SANTANA DO MUNDAU","AL","79044.749014965"
"109","-10.12","-36.9","SAO BRAS - AL","SAO BRAS","AL","43749.941627183"
"110","-9.01","-36.05","SAO JOSE DA LAJE - AL","SAO JOSE DA LAJE","AL","145856.81879441"
"111","-9.55","-37.38","SAO JOSE DA TAPERA - AL","SAO JOSE DA TAPERA","AL","177578.30140283"
"112","-9.31","-35.56","SAO LUIS DO QUITUNDE - AL","SAO LUIS DO QUITUNDE","AL","215025.8889209"
"113","-9.78","-36.09","SAO MIGUEL DOS CAMPOS - AL","SAO MIGUEL DOS CAMPOS","AL","327467.80646641"
"114","-9.26","-35.37","SAO MIGUEL DOS MILAGRES - AL","SAO MIGUEL DOS MILAGRES","AL","36363.546567879"
"115","-9.93","-36.55","SAO SEBASTIAO - AL","SAO SEBASTIAO","AL","170897.16220346"
"116","-9.56","-35.82","SATUBA - AL","SATUBA","AL","68602.255662294"
"117","-9.35","-37.5","SENADOR RUI PALMEIRA - AL","SENADOR RUI PALMEIRA","AL","54986.999020358"
"118","-9.53","-36.43","TANQUE D'ARCA - AL","TANQUE D'ARCA","AL","47870.335302014"
"119","-9.64","-36.49","TAQUARANA - AL","TAQUARANA","AL","119104.63324234"
"120","-9.9","-36.35","TEOTONIO VILELA - AL","TEOTONIO VILELA","AL","224462.59895284"
"121","-9.97","-37","TRAIPU - AL","TRAIPU","AL","150998.96996791"
"122","-9.16","-36.03","UNIAO DOS PALMARES - AL","UNIAO DOS PALMARES","AL","337860.87552446"
"123","-9.37","-36.24","VICOSA - AL","VICOSA","AL","169476.52036545"
"124","-3.22","-64.8","ALVARAES - AM","ALVARAES","AM","82600.646799992"
"125","-3.36","-68.19","AMATURA - AM","AMATURA","AM","40856.168722981"
"126","-3.58","-61.4","ANAMA - AM","ANAMA","AM","46517.397529805"
"127","-3.77","-61.64","ANORI - AM","ANORI","AM","71442.083035345"
"128","-7.19","-59.89","APUI - AM","APUI","AM","76619.951879706"
"129","-4.37","-70.19","ATALAIA DO NORTE - AM","ATALAIA DO NORTE","AM","52195.030853438"
"130","-3.58","-59.13","AUTAZES - AM","AUTAZES","AM","161207.7781463"
"131","-0.97","-62.92","BARCELOS - AM","BARCELOS","AM","102560.10877312"
"132","-2.79","-57.07","BARREIRINHA - AM","BARREIRINHA","AM","126431.78823823"
"133","-4.38","-70.03","BENJAMIN CONSTANT - AM","BENJAMIN CONSTANT","AM","148515.08119015"
"134","-3.89","-61.37","BERURI - AM","BERURI","AM","61613.949371934"
"135","-2.97","-57.59","BOA VISTA DO RAMOS - AM","BOA VISTA DO RAMOS","AM","54480.696185676"
"136","-8.75","-67.39","BOCA DO ACRE - AM","BOCA DO ACRE","AM","169288.63278114"
"137","-4.38","-59.59","BORBA - AM","BORBA","AM","154129.05914613"
"138","-3.32","-61.2","CAAPIRANGA - AM","CAAPIRANGA","AM","42600.02683709"
"139","-6.53","-64.38","CANUTAMA - AM","CANUTAMA","AM","50677.716494891"
"140","-4.88","-66.89","CARAUARI - AM","CARAUARI","AM","140714.18649546"
"141","-3.76","-60.36","CAREIRO - AM","CAREIRO","AM","115025.99882986"
"142","-3.22","-59.82","CAREIRO DA VARZEA - AM","CAREIRO DA VARZEA","AM","117442.57730837"
"143","-4.08","-63.14","COARI - AM","COARI","AM","339396.01808063"
"144","-3.83","-62.05","CODAJAS - AM","CODAJAS","AM","97661.16976548"
"145","-6.66","-69.87","EIRUNEPE - AM","EIRUNEPE","AM","159931.6988001"
"146","-7.43","-70.02","ENVIRA - AM","ENVIRA","AM","124787.15471874"
"147","-2.51","-66.09","FONTE BOA - AM","FONTE BOA","AM","147295.39411801"
"148","-7.54","-72.58","GUAJARA - AM","GUAJARA","AM","69741.096735788"
"149","-7.5","-63.02","HUMAITA - AM","HUMAITA","AM","177504.45559515"
"150","-7.05","-71.69","IPIXUNA - AM","IPIXUNA","AM","68611.156912345"
"151","-3.28","-60.18","IRANDUBA - AM","IRANDUBA","AM","169138.22160235"
"152","-3.14","-58.44","ITACOATIARA - AM","ITACOATIARA","AM","428526.00824567"
"153","-6.42","-68.25","ITAMARATI - AM","ITAMARATI","AM","49869.419174067"
"154","-2.74","-58.02","ITAPIRANGA - AM","ITAPIRANGA","AM","42114.724636078"
"155","-1.82","-66.59","JAPURA - AM","JAPURA","AM","43249.255277944"
"156","-3.48","-66.06","JURUA - AM","JURUA","AM","29024.980899571"
"157","-2.74","-66.76","JUTAI - AM","JUTAI","AM","134622.7317565"
"158","-7.25","-64.79","LABREA - AM","LABREA","AM","185192.80258581"
"159","-3.3","-60.62","MANACAPURU - AM","MANACAPURU","AM","444701.49125358"
"160","-3.42","-60.45","MANAQUIRI - AM","MANAQUIRI","AM","107501.95770912"
"161","-3.1","-60.02","MANAUS - AM","MANAUS","AM","1157357"
"162","-5.8","-61.3","MANICORE - AM","MANICORE","AM","253224.87345991"
"163","-1.85","-65.58","MARAA - AM","MARAA","AM","86837.315732308"
"164","-3.38","-57.71","MAUES - AM","MAUES","AM","235201.78279589"
"165","-2.18","-56.71","NHAMUNDA - AM","NHAMUNDA","AM","97000.427767978"
"166","-3.88","-59.09","NOVA OLINDA DO NORTE - AM","NOVA OLINDA DO NORTE","AM","124659.69981151"
"167","-2.62","-60.94","NOVO AIRAO - AM","NOVO AIRAO","AM","90626.508547957"
"168","-5.12","-60.38","NOVO ARIPUANA - AM","NOVO ARIPUANA","AM","95633.857026914"
"169","-2.62","-56.73","PARINTINS - AM","PARINTINS","AM","463351.48740893"
"170","-7.71","-66.97","PAUINI - AM","PAUINI","AM","126534.50572281"
"171","-2.03","-60.02","PRESIDENTE FIGUEIREDO - AM","PRESIDENTE FIGUEIREDO","AM","66940.111373961"
"172","-2.69","-59.7","RIO PRETO DA EVA - AM","RIO PRETO DA EVA","AM","62170.862040669"
"173","-0.41","-65.01","SANTA ISABEL DO RIO NEGRO - AM","SANTA ISABEL DO RIO NEGRO","AM","77986.280431975"
"174","-3.1","-67.94","SANTO ANTONIO DO ICA - AM","SANTO ANTONIO DO ICA","AM","153975.73888593"
"175","-0.13","-67.08","SAO GABRIEL DA CACHOEIRA - AM","SAO GABRIEL DA CACHOEIRA","AM","185850.67760734"
"176","-3.37","-68.87","SAO PAULO DE OLIVENCA - AM","SAO PAULO DE OLIVENCA","AM","125219.55889353"
"177","-2.57","-57.87","SAO SEBASTIAO DO UATUMA - AM","SAO SEBASTIAO DO UATUMA","AM","39142.050905949"
"178","-2.83","-58.2","SILVES - AM","SILVES","AM","40719.003462241"
"179","-4.25","-69.93","TABATINGA - AM","TABATINGA","AM","221113.99138308"
"180","-5.62","-63.18","TAPAUA - AM","TAPAUA","AM","112793.9763023"
"181","-3.35","-64.71","TEFE - AM","TEFE","AM","392307.15667514"
"182","-2.87","-67.8","TONANTINS - AM","TONANTINS","AM","93289.328388251"
"183","-2.99","-65.1","UARINI - AM","UARINI","AM","68627.053493016"
"184","-2.53","-57.76","URUCARA - AM","URUCARA","AM","109671.67017677"
"185","-3.13","-58.15","URUCURITUBA - AM","URUCURITUBA","AM","107788.73847277"
"186","2.05","-50.79","AMAPA - AP","AMAPA","AP","39088.087608714"
"187","2.49","-50.94","CALCOENE - AP","CALCOENE","AP","34930.230051096"
"188","0.98","-50.8","CUTIAS - AP","CUTIAS","AP","12328.238741673"
"189","0.85","-51.18","FERREIRA GOMES - AP","FERREIRA GOMES","AP","15759.982171407"
"190","0.71","-50.8","ITAUBAL - AP","ITAUBAL","AP","13100.70395198"
"191","-1.12","-52","LARANJAL DO JARI - AP","LARANJAL DO JARI","AP","145579.75742576"
"192","0.03","-51.06","MACAPA - AP","MACAPA","AP","1538101.1447224"
"193","-0.11","-51.28","MAZAGAO - AP","MAZAGAO","AP","69031.28181355"
"194","3.84","-51.83","OIAPOQUE - AP","OIAPOQUE","AP","60068.382537187"
"195","0.77","-51.94","PEDRA BRANCA DO AMAPARI - AP","PEDRA BRANCA DO AMAPARI","AP","21025.701425941"
"196","0.71","-51.41","PORTO GRANDE - AP","PORTO GRANDE","AP","48810.958934466"
"197","1.74","-50.79","PRACUUBA - AP","PRACUUBA","AP","10392.820785677"
"198","-0.05","-51.18","SANTANA - AP","SANTANA","AP","434367.99601791"
"199","0.89","-52","SERRA DO NAVIO - AP","SERRA DO NAVIO","AP","18004.301787191"
"200","1.5","-50.91","TARTARUGALZINHO - AP","TARTARUGALZINHO","AP","28848.809189025"
"201","-0.8","-52.45","VITORIA DO JARI - AP","VITORIA DO JARI","AP","40670.597195071"
"202","-13.25","-41.66","ABAIRA - BA","ABAIRA","BA","86534.458970124"
"203","-8.72","-39.11","ABARE - BA","ABARE","BA","81865.552710281"
"204","-11.66","-38.01","ACAJUTIBA - BA","ACAJUTIBA","BA","83632.771772107"
"205","-10.53","-38.1","ADUSTINA - BA","ADUSTINA","BA","81024.581036289"
"206","-11.86","-38.76","AGUA FRIA - BA","AGUA FRIA","BA","90155.248634028"
"207","-14.12","-39.88","AIQUARA - BA","AIQUARA","BA","41079.729289723"
"208","-12.13","-38.41","ALAGOINHAS - BA","ALAGOINHAS","BA","740113.17213751"
"209","-17.51","-39.19","ALCOBACA - BA","ALCOBACA","BA","100351.0801641"
"210","-14.7","-39.63","ALMADINA - BA","ALMADINA","BA","57487.721501454"
"211","-13.03","-39.6","AMARGOSA - BA","AMARGOSA","BA","212259.98036788"
"212","-12.39","-38.75","AMELIA RODRIGUES - BA","AMELIA RODRIGUES","BA","150633.40653329"
"213","-11.45","-41.43","AMERICA DOURADA - BA","AMERICA DOURADA","BA","96557.6075286"
"214","-14.61","-41.13","ANAGE - BA","ANAGE","BA","293628.64613877"
"215","-12.8","-41.33","ANDARAI - BA","ANDARAI","BA","103777.86528887"
"216","-10.34","-39.83","ANDORINHA - BA","ANDORINHA","BA","118517.61116264"
"217","-12","-44.69","ANGICAL - BA","ANGICAL","BA","88739.861137232"
"218","-12.15","-39.24","ANGUERA - BA","ANGUERA","BA","55615.905639708"
"219","-10.4","-38.33","ANTAS - BA","ANTAS","BA","69625.313717657"
"220","-12.43","-39.12","ANTONIO CARDOSO - BA","ANTONIO CARDOSO","BA","68664.971773314"
"221","-10.57","-40.27","ANTONIO GONCALVES - BA","ANTONIO GONCALVES","BA","95325.738480246"
"222","-11.66","-38.08","APORA - BA","APORA","BA","104308.044748"
"223","-13.85","-39.74","APUAREMA - BA","APUAREMA","BA","61723.431881375"
"224","-12.22","-38.2","ARACAS - BA","ARACAS","BA","75207.070593688"
"225","-14.42","-41.46","ARACATU - BA","ARACATU","BA","116752.36105095"
"226","-11.33","-38.96","ARACI - BA","ARACI","BA","334393.99545642"
"227","-12.08","-38.49","ARAMARI - BA","ARAMARI","BA","60924.813205527"
"228","-15.26","-39.41","ARATACA - BA","ARATACA","BA","79261.922070507"
"229","-13.07","-39","ARATUIPE - BA","ARATUIPE","BA","54451.547535045"
"230","-14.31","-39.32","AURELINO LEAL - BA","AURELINO LEAL","BA","100109.11139048"
"231","-12.3","-44.53","BAIANOPOLIS - BA","BAIANOPOLIS","BA","85868.04848356"
"232","-11.96","-40.16","BAIXA GRANDE - BA","BAIXA GRANDE","BA","128044.81745192"
"233","-10.57","-38.61","BANZAE - BA","BANZAE","BA","67735.456840143"
"234","-11.08","-43.14","BARRA - BA","BARRA","BA","251648.18908315"
"235","-13.62","-41.32","BARRA DA ESTIVA - BA","BARRA DA ESTIVA","BA","139852.19748217"
"236","-14.88","-40.57","BARRA DO CHOCA - BA","BARRA DO CHOCA","BA","270414.43648105"
"237","-11.81","-42.05","BARRA DO MENDES - BA","BARRA DO MENDES","BA","88784.839471099"
"238","-14.21","-39.6","BARRA DO ROCHA - BA","BARRA DO ROCHA","BA","55092.360346919"
"239","-12.15","-44.99","BARREIRAS - BA","BARREIRAS","BA","684899.3698253"
"240","-11.76","-41.91","BARRO ALTO - BA","BARRO ALTO","BA","79292.613417789"
"241","-14.81","-39.47","BARRO PRETO - BA","BARRO PRETO","BA","43077.390456702"
"242","-15.86","-38.88","BELMONTE - BA","BELMONTE","BA","123248.20116268"
"243","-15.03","-41.26","BELO CAMPO - BA","BELO CAMPO","BA","96658.667602063"
"244","-11.61","-38.8","BIRITINGA - BA","BIRITINGA","BA","95581.335440144"
"245","-14.36","-40.2","BOA NOVA - BA","BOA NOVA","BA","106301.29499887"
"246","-12.66","-40.6","BOA VISTA DO TUPIM - BA","BOA VISTA DO TUPIM","BA","112531.81244511"
"247","-13.25","-43.41","BOM JESUS DA LAPA - BA","BOM JESUS DA LAPA","BA","333839.79694728"
"248","-14.37","-40.5","BOM JESUS DA SERRA - BA","BOM JESUS DA SERRA","BA","75873.963001649"
"249","-12.7","-41.82","BONINAL - BA","BONINAL","BA","85910.865299182"
"250","-11.96","-41.26","BONITO - BA","BONITO","BA","97719.363402942"
"251","-12.82","-42.73","BOQUIRA - BA","BOQUIRA","BA","127327.18736038"
"252","-13.38","-42.52","BOTUPORA - BA","BOTUPORA","BA","81785.5768336"
"253","-13.1","-39.79","BREJOES - BA","BREJOES","BA","101712.96580398"
"254","-12.48","-43.96","BREJOLANDIA - BA","BREJOLANDIA","BA","66415.649639962"
"255","-11.99","-42.62","BROTAS DE MACAUBAS - BA","BROTAS DE MACAUBAS","BA","98001.143058018"
"256","-14.2","-41.66","BRUMADO - BA","BRUMADO","BA","386672.68115999"
"257","-14.95","-39.3","BUERAREMA - BA","BUERAREMA","BA","122816.82587298"
"258","-10.7","-43.63","BURITIRAMA - BA","BURITIRAMA","BA","101926.27516346"
"259","-14.97","-40.4","CAATIBA - BA","CAATIBA","BA","97073.774551068"
"260","-12.53","-39.19","CABACEIRAS DO PARAGUACU - BA","CABACEIRAS DO PARAGUACU","BA","93308.501428392"
"261","-12.61","-38.95","CACHOEIRA - BA","CACHOEIRA","BA","184070.8891381"
"262","-14.5","-42.22","CACULE - BA","CACULE","BA","139511.42057646"
"263","-11.09","-40.43","CAEM - BA","CAEM","BA","119319.95762024"
"264","-14.33","-40.91","CAETANOS - BA","CAETANOS","BA","78263.963204753"
"265","-14.06","-42.47","CAETITE - BA","CAETITE","BA","274261.58370254"
"266","-11.69","-41.46","CAFARNAUM - BA","CAFARNAUM","BA","90626.011885261"
"267","-13.48","-39.04","CAIRU - BA","CAIRU","BA","57258.184546645"
"268","-11.02","-40.3","CALDEIRAO GRANDE - BA","CALDEIRAO GRANDE","BA","107178.97260117"
"269","-15.41","-39.49","CAMACAN - BA","CAMACAN","BA","217355.59562202"
"270","-12.69","-38.32","CAMACARI - BA","CAMACARI","BA","837461.20079254"
"271","-13.94","-39.1","CAMAMU - BA","CAMAMU","BA","209198.65229343"
"272","-9.51","-43.01","CAMPO ALEGRE DE LOURDES - BA","CAMPO ALEGRE DE LOURDES","BA","157985.54638488"
"273","-10.5","-40.32","CAMPO FORMOSO - BA","CAMPO FORMOSO","BA","388830.75019361"
"274","-13.07","-44.2","CANAPOLIS - BA","CANAPOLIS","BA","60381.485418275"
"275","-11.68","-41.76","CANARANA - BA","CANARANA","BA","130052.1367059"
"276","-15.67","-38.94","CANAVIEIRAS - BA","CANAVIEIRAS","BA","233748.97479198"
"277","-11.8","-39.11","CANDEAL - BA","CANDEAL","BA","68524.98196762"
"278","-12.66","-38.55","CANDEIAS - BA","CANDEIAS","BA","486171.06165645"
"279","-14.41","-42.86","CANDIBA - BA","CANDIBA","BA","87539.525923638"
"280","-15.5","-41.23","CANDIDO SALES - BA","CANDIDO SALES","BA","156977.28844208"
"281","-10.67","-39.49","CANSANCAO - BA","CANSANCAO","BA","211719.900013"
"282","-9.9","-39.13","CANUDOS - BA","CANUDOS","BA","116280.35598083"
"283","-11.66","-39.83","CAPELA DO ALTO ALEGRE - BA","CAPELA DO ALTO ALEGRE","BA","75474.762364328"
"284","-11.38","-40.01","CAPIM GROSSO - BA","CAPIM GROSSO","BA","173324.08065339"
"285","-14.6","-41.33","CARAIBAS - BA","CARAIBAS","BA","101544.54715821"
"286","-17.73","-39.26","CARAVELAS - BA","CARAVELAS","BA","117473.90018292"
"287","-11.94","-37.94","CARDEAL DA SILVA - BA","CARDEAL DA SILVA","BA","45499.166107831"
"288","-14.3","-43.76","CARINHANHA - BA","CARINHANHA","BA","177442.23590221"
"289","-9.16","-40.97","CASA NOVA - BA","CASA NOVA","BA","302450.93227434"
"290","-12.76","-39.42","CASTRO ALVES - BA","CASTRO ALVES","BA","170113.44492731"
"291","-12.31","-44.86","CATOLANDIA - BA","CATOLANDIA","BA","19954.737076252"
"292","-12.35","-38.37","CATU - BA","CATU","BA","299211.56036361"
"293","-13.32","-42.29","CATURAMA - BA","CATURAMA","BA","64571.912634929"
"294","-11.13","-42.11","CENTRAL - BA","CENTRAL","BA","91393.366565177"
"295","-8.98","-39.09","CHORROCHO - BA","CHORROCHO","BA","61094.884539564"
"296","-10.6","-38.38","CICERO DANTAS - BA","CICERO DANTAS","BA","178910.80139978"
"297","-11.1","-38.51","CIPO - BA","CIPO","BA","80394.602852419"
"298","-14.64","-39.55","COARACI - BA","COARACI","BA","175503.11188146"
"299","-14.18","-44.53","COCOS - BA","COCOS","BA","109198.68422021"
"300","-12.5","-38.99","CONCEICAO DA FEIRA - BA","CONCEICAO DA FEIRA","BA","106593.86253962"
"301","-12.8","-39.16","CONCEICAO DO ALMEIDA - BA","CONCEICAO DO ALMEIDA","BA","128490.06194206"
"302","-11.56","-39.28","CONCEICAO DO COITE - BA","CONCEICAO DO COITE","BA","352590.05372277"
"303","-12.42","-38.72","CONCEICAO DO JACUIPE - BA","CONCEICAO DO JACUIPE","BA","151550.47692958"
"304","-11.81","-37.61","CONDE - BA","CONDE","BA","118393.15002165"
"305","-14.89","-41.96","CONDEUBA - BA","CONDEUBA","BA","113669.04306269"
"306","-13.76","-41.04","CONTENDAS DO SINCORA - BA","CONTENDAS DO SINCORA","BA","33407.380422291"
"307","-12.23","-38.75","CORACAO DE MARIA - BA","CORACAO DE MARIA","BA","156402.10328725"
"308","-15.03","-41.93","CORDEIROS - BA","CORDEIROS","BA","72960.588881978"
"309","-13.82","-44.45","CORIBE - BA","CORIBE","BA","109159.20680975"
"310","-10.28","-37.92","CORONEL JOAO SA - BA","CORONEL JOAO SA","BA","131538.17684368"
"311","-13.34","-44.63","CORRENTINA - BA","CORRENTINA","BA","182116.49478634"
"312","-12.02","-44.25","COTEGIPE - BA","COTEGIPE","BA","80845.771501757"
"313","-13.35","-39.81","CRAVOLANDIA - BA","CRAVOLANDIA","BA","30090.439926519"
"314","-11.51","-38.15","CRISOPOLIS - BA","CRISOPOLIS","BA","108220.2948463"
"315","-12.23","-44.42","CRISTOPOLIS - BA","CRISTOPOLIS","BA","85418.79443991"
"316","-12.67","-39.1","CRUZ DAS ALMAS - BA","CRUZ DAS ALMAS","BA","320236.55760869"
"317","-8.99","-39.9","CURACA - BA","CURACA","BA","174361.64243149"
"318","-14.43","-39.9","DARIO MEIRA - BA","DARIO MEIRA","BA","104088.13612118"
"319","-12.61","-38.29","DIAS D'AVILA - BA","DIAS D'AVILA","BA","229868.09846386"
"320","-13.76","-41.77","DOM BASILIO - BA","DOM BASILIO","BA","68802.530654185"
"321","-12.9","-39.19","DOM MACEDO COSTA - BA","DOM MACEDO COSTA","BA","24613.881997109"
"322","-12.94","-39.52","ELISIO MEDRADO - BA","ELISIO MEDRADO","BA","48431.370800774"
"323","-15.53","-40.9","ENCRUZILHADA - BA","ENCRUZILHADA","BA","209306.67521342"
"324","-11.94","-38.08","ENTRE RIOS - BA","ENTRE RIOS","BA","220662.68345327"
"325","-13.41","-42.14","ERICO CARDOSO - BA","ERICO CARDOSO","BA","64690.252887309"
"326","-11.79","-37.94","ESPLANADA - BA","ESPLANADA","BA","167091.00158166"
"327","-10.5","-39.01","EUCLIDES DA CUNHA - BA","EUCLIDES DA CUNHA","BA","345320.4959682"
"328","-16.37","-39.58","EUNAPOLIS - BA","EUNAPOLIS","BA","528077.08323281"
"329","-10.6","-38.21","FATIMA - BA","FATIMA","BA","121256.88593366"
"330","-14.2","-44.28","FEIRA DA MATA - BA","FEIRA DA MATA","BA","40027.216253611"
"331","-12.26","-38.96","FEIRA DE SANTANA - BA","FEIRA DE SANTANA","BA","450487"
"332","-10.74","-40.13","FILADELFIA - BA","FILADELFIA","BA","110840.8809792"
"333","-14.98","-39.92","FIRMINO ALVES - BA","FIRMINO ALVES","BA","39924.226863295"
"334","-14.86","-39.66","FLORESTA AZUL - BA","FLORESTA AZUL","BA","88516.503493428"
"335","-11.04","-45.19","FORMOSA DO RIO PRETO - BA","FORMOSA DO RIO PRETO","BA","104309.39211284"
"336","-13.74","-39.48","GANDU - BA","GANDU","BA","194801.47540585"
"337","-11.47","-39.78","GAVIAO - BA","GAVIAO","BA","32270.036896376"
"338","-11.42","-42.5","GENTIO DO OURO - BA","GENTIO DO OURO","BA","61096.153451684"
"339","-9.33","-38.25","GLORIA - BA","GLORIA","BA","86852.990238637"
"340","-14.32","-39.46","GONGOGI - BA","GONGOGI","BA","76437.773448109"
"341","-12.6","-39.04","GOVERNADOR MANGABEIRA - BA","GOVERNADOR MANGABEIRA","BA","110174.96966238"
"342","-14.54","-41.94","GUAJERU - BA","GUAJERU","BA","78819.754029078"
"343","-14.22","-42.78","GUANAMBI - BA","GUANAMBI","BA","424822.13104939"
"344","-16.58","-39.78","GUARATINGA - BA","GUARATINGA","BA","160553.7650833"
"345","-10.68","-38.28","HELIOPOLIS - BA","HELIOPOLIS","BA","77970.195550078"
"346","-12.76","-40.21","IACU - BA","IACU","BA","186347.90648562"
"347","-14.25","-42.25","IBIASSUCE - BA","IBIASSUCE","BA","74337.621161969"
"348","-14.86","-39.58","IBICARAI - BA","IBICARAI","BA","204595.28319672"
"349","-13.41","-41.28","IBICOARA - BA","IBICOARA","BA","58178.415387895"
"350","-14.84","-39.98","IBICUI - BA","IBICUI","BA","92787.434745617"
"351","-11.64","-42.01","IBIPEBA - BA","IBIPEBA","BA","100033.58169135"
"352","-12.88","-42.48","IBIPITANGA - BA","IBIPITANGA","BA","86240.043819465"
"353","-12.65","-40.93","IBIQUERA - BA","IBIQUERA","BA","30235.809973404"
"354","-14.16","-39.37","IBIRAPITANGA - BA","IBIRAPITANGA","BA","156107.10902487"
"355","-17.68","-40.1","IBIRAPUA - BA","IBIRAPUA","BA","51520.013692966"
"356","-14.06","-39.64","IBIRATAIA - BA","IBIRATAIA","BA","155682.01261538"
"357","-12.65","-42.21","IBITIARA - BA","IBITIARA","BA","95180.397957385"
"358","-11.54","-41.97","IBITITA - BA","IBITITA","BA","105603.65034527"
"359","-12.18","-43.22","IBOTIRAMA - BA","IBOTIRAMA","BA","145962.87177433"
"360","-11.74","-39.19","ICHU - BA","ICHU","BA","60135.136339757"
"361","-13.77","-42.71","IGAPORA - BA","IGAPORA","BA","100362.04446577"
"362","-13.82","-39.14","IGRAPIUNA - BA","IGRAPIUNA","BA","86514.319197612"
"363","-14.75","-40.08","IGUAI - BA","IGUAI","BA","146100.64996426"
"364","-14.78","-39.04","ILHEUS - BA","ILHEUS","BA","1563450.268291"
"365","-11.78","-38.35","INHAMBUPE - BA","INHAMBUPE","BA","161951.57471499"
"366","-12.3","-39.3","IPECAETA - BA","IPECAETA","BA","106162.14090408"
"367","-14.13","-39.73","IPIAU - BA","IPIAU","BA","261102.71037502"
"368","-12.15","-39.73","IPIRA - BA","IPIRA","BA","423127.16149167"
"369","-11.82","-42.61","IPUPIARA - BA","IPUPIARA","BA","55293.244640106"
"370","-13.25","-40.08","IRAJUBA - BA","IRAJUBA","BA","44666.836491384"
"371","-13.28","-40.95","IRAMAIA - BA","IRAMAIA","BA","112380.7453194"
"372","-12.24","-41.61","IRAQUARA - BA","IRAQUARA","BA","122687.684085"
"373","-12.05","-38.76","IRARA - BA","IRARA","BA","148969.40055493"
"374","-11.3","-41.85","IRECE - BA","IRECE","BA","343495.58258914"
"375","-16.57","-39.55","ITABELA - BA","ITABELA","BA","164404.18057921"
"376","-12.52","-40.3","ITABERABA - BA","ITABERABA","BA","339562.8223821"
"377","-14.78","-39.28","ITABUNA - BA","ITABUNA","BA","1129894.1746599"
"378","-14.27","-38.99","ITACARE - BA","ITACARE","BA","99048.846757546"
"379","-12.98","-40.97","ITAETE - BA","ITAETE","BA","91284.840532192"
"380","-14.16","-40","ITAGI - BA","ITAGI","BA","97100.052281444"
"381","-14.28","-39.84","ITAGIBA - BA","ITAGIBA","BA","96712.639986538"
"382","-16.08","-39.61","ITAGIMIRIM - BA","ITAGIMIRIM","BA","48331.890151936"
"383","-11.01","-42.39","ITAGUACU DA BAHIA - BA","ITAGUACU DA BAHIA","BA","91491.06399295"
"384","-15.14","-39.72","ITAJU DO COLONIA - BA","ITAJU DO COLONIA","BA","55417.762768387"
"385","-14.67","-39.37","ITAJUIPE - BA","ITAJUIPE","BA","164010.88678802"
"386","-17.03","-39.53","ITAMARAJU - BA","ITAMARAJU","BA","426163.06198847"
"387","-13.77","-39.68","ITAMARI - BA","ITAMARI","BA","55301.377967595"
"388","-15.24","-40.62","ITAMBE - BA","ITAMBE","BA","188361.28531832"
"389","-12.26","-38.04","ITANAGRA - BA","ITANAGRA","BA","28838.358072628"
"390","-17.16","-40.33","ITANHEM - BA","ITANHEM","BA","141035.03974041"
"391","-12.88","-38.67","ITAPARICA - BA","ITAPARICA","BA","108867.90006938"
"392","-14.89","-39.42","ITAPE - BA","ITAPE","BA","93829.356761413"
"393","-15.95","-39.53","ITAPEBI - BA","ITAPEBI","BA","73654.584951572"
"394","-15.24","-40.24","ITAPETINGA - BA","ITAPETINGA","BA","365307.71449504"
"395","-11.31","-38.23","ITAPICURU - BA","ITAPICURU","BA","164949.07238972"
"396","-14.42","-39.56","ITAPITANGA - BA","ITAPITANGA","BA","66101.02600599"
"397","-13.45","-39.94","ITAQUARA - BA","ITAQUARA","BA","47982.433005313"
"398","-15.66","-40.06","ITARANTIM - BA","ITARANTIM","BA","98326.298784538"
"399","-12.71","-39.69","ITATIM - BA","ITATIM","BA","72823.656235385"
"400","-13.53","-40.15","ITIRUCU - BA","ITIRUCU","BA","83451.00572506"
"401","-10.69","-39.85","ITIUBA - BA","ITIUBA","BA","217452.11431814"
"402","-15.11","-40.07","ITORORO - BA","ITORORO","BA","124760.66820937"
"403","-13.81","-41.29","ITUACU - BA","ITUACU","BA","129980.90258563"
"404","-13.73","-39.14","ITUBERA - BA","ITUBERA","BA","134449.07108915"
"405","-14.41","-43.55","IUIU - BA","IUIU","BA","78569.13206892"
"406","-13.61","-44.43","JABORANDI - BA","JABORANDI","BA","64873.032395385"
"407","-14.85","-42.43","JACARACI - BA","JACARACI","BA","90064.319425086"
"408","-11.18","-40.51","JACOBINA - BA","JACOBINA","BA","555897.30530018"
"409","-13.53","-39.97","JAGUAQUARA - BA","JAGUAQUARA","BA","259718.77184694"
"410","-10.26","-40.19","JAGUARARI - BA","JAGUARARI","BA","237944.81443513"
"411","-13.11","-38.89","JAGUARIPE - BA","JAGUARIPE","BA","88467.528817258"
"412","-11.56","-37.78","JANDAIRA - BA","JANDAIRA","BA","61135.452231165"
"413","-13.85","-40.08","JEQUIE - BA","JEQUIE","BA","1055190.4027902"
"414","-10.06","-38.35","JEREMOABO - BA","JEREMOABO","BA","214798.62010899"
"415","-13.25","-39.57","JIQUIRICA - BA","JIQUIRICA","BA","90327.363858521"
"416","-14.01","-39.88","JITAUNA - BA","JITAUNA","BA","104401.5494546"
"417","-11.35","-41.66","JOAO DOURADO - BA","JOAO DOURADO","BA","117460.06563752"
"418","-9.41","-40.5","JUAZEIRO - BA","JUAZEIRO","BA","1092362.1767349"
"419","-16.84","-40.15","JUCURUCU - BA","JUCURUCU","BA","78973.465270414"
"420","-11.04","-41.96","JUSSARA - BA","JUSSARA","BA","84408.320795037"
"421","-15.19","-39.49","JUSSARI - BA","JUSSARI","BA","56462.386342336"
"422","-13.51","-41.59","JUSSIAPE - BA","JUSSIAPE","BA","72520.921965109"
"423","-13.65","-40.21","LAFAIETE COUTINHO - BA","LAFAIETE COUTINHO","BA","32493.957578902"
"424","-14.03","-42.14","LAGOA REAL - BA","LAGOA REAL","BA","82326.876893864"
"425","-13.18","-39.42","LAJE - BA","LAJE","BA","126955.7448745"
"426","-17.61","-40.34","LAJEDAO - BA","LAJEDAO","BA","23195.792835217"
"427","-12.35","-40.9","LAJEDINHO - BA","LAJEDINHO","BA","30452.314908886"
"428","-13.47","-40.22","LAJEDO DO TABOCAL - BA","LAJEDO DO TABOCAL","BA","57800.049996878"
"429","-11.78","-38.9","LAMARAO - BA","LAMARAO","BA","66900.211924427"
"430","-11.38","-41.83","LAPAO - BA","LAPAO","BA","134558.78146143"
"431","-12.89","-38.32","LAURO DE FREITAS - BA","LAURO DE FREITAS","BA","619047.29117747"
"432","-12.56","-41.39","LENCOIS - BA","LENCOIS","BA","60346.667634639"
"433","-14.68","-42.5","LICINIO DE ALMEIDA - BA","LICINIO DE ALMEIDA","BA","87179.112472377"
"434","-13.64","-41.84","LIVRAMENTO DO BRUMADO - BA","LIVRAMENTO DO BRUMADO","BA","211958.27820203"
"435","-12.13","-40.36","MACAJUBA - BA","MACAJUBA","BA","71251.543384565"
"436","-15.56","-40.42","MACARANI - BA","MACARANI","BA","113596.66080219"
"437","-13.01","-42.69","MACAUBAS - BA","MACAUBAS","BA","246838.67562897"
"438","-9.16","-39.05","MACURURE - BA","MACURURE","BA","46830.343169106"
"439","-12.74","-38.62","MADRE DE DEUS - BA","MADRE DE DEUS","BA","69056.45974911"
"440","-14.66","-41.49","MAETINGA - BA","MAETINGA","BA","75506.394490449"
"441","-15.62","-40.26","MAIQUINIQUE - BA","MAIQUINIQUE","BA","45726.01367746"
"442","-11.71","-40.14","MAIRI - BA","MAIRI","BA","115853.982767"
"443","-14.33","-43.77","MALHADA - BA","MALHADA","BA","90447.40877596"
"444","-14.38","-41.87","MALHADA DE PEDRAS - BA","MALHADA DE PEDRAS","BA","49293.404364696"
"445","-14.14","-40.24","MANOEL VITORINO - BA","MANOEL VITORINO","BA","106561.23558442"
"446","-10.71","-44.03","MANSIDAO - BA","MANSIDAO","BA","67459.496527149"
"447","-13.44","-40.43","MARACAS - BA","MARACAS","BA","193326.38913062"
"448","-12.77","-38.91","MARAGOGIPE - BA","MARAGOGIPE","BA","227947.00637613"
"449","-14.1","-39.01","MARAU - BA","MARAU","BA","118246.68160378"
"450","-13","-40.53","MARCIONILIO SOUZA - BA","MARCIONILIO SOUZA","BA","93592.598012883"
"451","-15.56","-39.3","MASCOTE - BA","MASCOTE","BA","104505.18225644"
"452","-12.53","-38.29","MATA DE SAO JOAO - BA","MATA DE SAO JOAO","BA","205502.36676267"
"453","-13.9","-42.84","MATINA - BA","MATINA","BA","60530.883182061"
"454","-17.37","-40.22","MEDEIROS NETO - BA","MEDEIROS NETO","BA","156315.954862"
"455","-11.42","-40.59","MIGUEL CALMON - BA","MIGUEL CALMON","BA","215077.79880116"
"456","-12.87","-39.85","MILAGRES - BA","MILAGRES","BA","78708.386633836"
"457","-10.95","-40.57","MIRANGABA - BA","MIRANGABA","BA","114244.4504848"
"458","-14.24","-40.77","MIRANTE - BA","MIRANTE","BA","67364.296593236"
"459","-10.43","-39.33","MONTE SANTO - BA","MONTE SANTO","BA","357426.42870064"
"460","-11.55","-43.28","MORPARA - BA","MORPARA","BA","58990.872484824"
"461","-11.55","-41.15","MORRO DO CHAPEU - BA","MORRO DO CHAPEU","BA","205265.30327089"
"462","-15.02","-42.36","MORTUGABA - BA","MORTUGABA","BA","83151.276718492"
"463","-13","-41.37","MUCUGE - BA","MUCUGE","BA","82048.704814052"
"464","-18.08","-39.55","MUCURI - BA","MUCURI","BA","158169.91541527"
"465","-11.96","-41.63","MULUNGU DO MORRO - BA","MULUNGU DO MORRO","BA","92049.705803128"
"466","-11.85","-40.47","MUNDO NOVO - BA","MUNDO NOVO","BA","149656.02342002"
"467","-13","-39.11","MUNIZ FERREIRA - BA","MUNIZ FERREIRA","BA","42166.531104305"
"468","-12.06","-43.54","MUQUEM DE SAO FRANCISCO - BA","MUQUEM DE SAO FRANCISCO","BA","61861.682274838"
"469","-12.62","-38.99","MURITIBA - BA","MURITIBA","BA","184761.25815975"
"470","-13.22","-39.5","MUTUIPE - BA","MUTUIPE","BA","136480.73113479"
"471","-13.03","-39.01","NAZARE - BA","NAZARE","BA","165037.36730655"
"472","-13.59","-39.1","NILO PECANHA - BA","NILO PECANHA","BA","105898.88626693"
"473","-10.82","-39.42","NORDESTINA - BA","NORDESTINA","BA","63078.611389532"
"474","-14.79","-40.14","NOVA CANAA - BA","NOVA CANAA","BA","89999.074936268"
"475","-11.6","-39.63","NOVA FATIMA - BA","NOVA FATIMA","BA","47434.932731875"
"476","-13.81","-39.62","NOVA IBIA - BA","NOVA IBIA","BA","80014.992167878"
"477","-13.02","-40.06","NOVA ITARANA - BA","NOVA ITARANA","BA","43275.843015019"
"478","-12.81","-41.07","NOVA REDENCAO - BA","NOVA REDENCAO","BA","85197.771305859"
"479","-11.23","-38.48","NOVA SOURE - BA","NOVA SOURE","BA","153050.25062473"
"480","-17.89","-39.37","NOVA VICOSA - BA","NOVA VICOSA","BA","184301.36174534"
"481","-12.8","-42.16","NOVO HORIZONTE - BA","NOVO HORIZONTE","BA","73259.394444357"
"482","-10.31","-38.4","NOVO TRIUNFO - BA","NOVO TRIUNFO","BA","81340.894547787"
"483","-11.36","-38.33","OLINDINA - BA","OLINDINA","BA","142357.77141867"
"484","-12.31","-42.89","OLIVEIRA DOS BREJINHOS - BA","OLIVEIRA DOS BREJINHOS","BA","145579.97770819"
"485","-12.01","-38.61","OURICANGAS - BA","OURICANGAS","BA","46519.320593774"
"486","-10.97","-41.08","OUROLANDIA - BA","OUROLANDIA","BA","86268.563374255"
"487","-14.26","-43.16","PALMAS DE MONTE ALTO - BA","PALMAS DE MONTE ALTO","BA","127019.33091144"
"488","-12.52","-41.55","PALMEIRAS - BA","PALMEIRAS","BA","69873.82923805"
"489","-13.44","-42.23","PARAMIRIM - BA","PARAMIRIM","BA","166887.93650292"
"490","-12.69","-43.18","PARATINGA - BA","PARATINGA","BA","168561.78236247"
"491","-10.68","-37.86","PARIPIRANGA - BA","PARIPIRANGA","BA","162687.14634434"
"492","-15.46","-39.65","PAU BRASIL - BA","PAU BRASIL","BA","84419.097458962"
"493","-9.4","-38.22","PAULO AFONSO - BA","PAULO AFONSO","BA","610697.65069606"
"494","-11.83","-39.61","PE DE SERRA - BA","PE DE SERRA","BA","78585.604738633"
"495","-12.15","-38.65","PEDRAO - BA","PEDRAO","BA","44526.548345281"
"496","-10.01","-37.89","PEDRO ALEXANDRE - BA","PEDRO ALEXANDRE","BA","106148.11292912"
"497","-13.15","-41.77","PIATA - BA","PIATA","BA","116853.36448833"
"498","-10","-42.5","PILAO ARCADO - BA","PILAO ARCADO","BA","201027.30708455"
"499","-14.49","-42.68","PINDAI - BA","PINDAI","BA","95603.231482308"
"500","-10.74","-40.36","PINDOBACU - BA","PINDOBACU","BA","149146.292153"
"501","-11.81","-39.9","PINTADAS - BA","PINTADAS","BA","65359.871054739"
"502","-13.76","-39.37","PIRAI DO NORTE - BA","PIRAI DO NORTE","BA","116347.14801712"
"503","-14.94","-41.72","PIRIPA - BA","PIRIPA","BA","98666.591233834"
"504","-11.73","-40.55","PIRITIBA - BA","PIRITIBA","BA","123923.25918275"
"505","-13.25","-40.36","PLANALTINO - BA","PLANALTINO","BA","50858.423368605"
"506","-14.67","-40.47","PLANALTO - BA","PLANALTO","BA","146135.54601577"
"507","-14.53","-40.36","POCOES - BA","POCOES","BA","270096.8171011"
"508","-12.43","-38.32","POJUCA - BA","POJUCA","BA","159916.49911139"
"509","-10.86","-40.13","PONTO NOVO - BA","PONTO NOVO","BA","112070.17075708"
"510","-16.45","-39.06","PORTO SEGURO - BA","PORTO SEGURO","BA","424348.48514207"
"511","-15.59","-39.87","POTIRAGUA - BA","POTIRAGUA","BA","100470.54409066"
"512","-17.34","-39.22","PRADO - BA","PRADO","BA","157085.23821201"
"513","-11.29","-41.98","PRESIDENTE DUTRA - BA","PRESIDENTE DUTRA","BA","89032.647825308"
"514","-14.68","-41.67","PRESIDENTE JANIO QUADROS - BA","PRESIDENTE JANIO QUADROS","BA","118091.60966361"
"515","-13.44","-39.42","PRESIDENTE TANCREDO NEVES - BA","PRESIDENTE TANCREDO NEVES","BA","108236.53337386"
"516","-10.97","-39.62","QUEIMADAS - BA","QUEIMADAS","BA","143418.08022599"
"517","-10.75","-39.21","QUIJINGUE - BA","QUIJINGUE","BA","152159.10726084"
"518","-11.41","-40.12","QUIXABEIRA - BA","QUIXABEIRA","BA","90398.527572203"
"519","-12.4","-39.5","RAFAEL JAMBEIRO - BA","RAFAEL JAMBEIRO","BA","150027.19248542"
"520","-9.62","-42.08","REMANSO - BA","REMANSO","BA","204937.41968581"
"521","-11.49","-39.42","RETIROLANDIA - BA","RETIROLANDIA","BA","80261.950034063"
"522","-11.74","-44.91","RIACHAO DAS NEVES - BA","RIACHAO DAS NEVES","BA","135321.23604475"
"523","-11.81","-39.38","RIACHAO DO JACUIPE - BA","RIACHAO DO JACUIPE","BA","201236.34088738"
"524","-13.6","-42.93","RIACHO DE SANTANA - BA","RIACHO DE SANTANA","BA","200206.24739382"
"525","-11.04","-38.43","RIBEIRA DO AMPARO - BA","RIBEIRA DO AMPARO","BA","83967.628013181"
"526","-10.83","-38.53","RIBEIRA DO POMBAL - BA","RIBEIRA DO POMBAL","BA","286259.51722843"
"527","-15.45","-40.73","RIBEIRAO DO LARGO - BA","RIBEIRAO DO LARGO","BA","85028.400754947"
"528","-13.57","-41.81","RIO DE CONTAS - BA","RIO DE CONTAS","BA","89677.054489273"
"529","-14.41","-42.07","RIO DO ANTONIO - BA","RIO DO ANTONIO","BA","96707.762651278"
"530","-13.12","-42.29","RIO DO PIRES - BA","RIO DO PIRES","BA","76103.630983932"
"531","-11.48","-37.93","RIO REAL - BA","RIO REAL","BA","192678.2974306"
"532","-8.85","-38.75","RODELAS - BA","RODELAS","BA","37019.334687809"
"533","-12.28","-40.49","RUY BARBOSA - BA","RUY BARBOSA","BA","180457.36421561"
"534","-12.87","-38.76","SALINAS DA MARGARIDA - BA","SALINAS DA MARGARIDA","BA","62090.898488082"
"535","-12.97","-38.51","SALVADOR - BA","SALVADOR","BA","2211539"
"536","-11.95","-38.97","SANTA BARBARA - BA","SANTA BARBARA","BA","105070.8150063"
"537","-9.73","-38.12","SANTA BRIGIDA - BA","SANTA BRIGIDA","BA","109304.29223278"
"538","-16.27","-39.02","SANTA CRUZ CABRALIA - BA","SANTA CRUZ CABRALIA","BA","120060.54471174"
"539","-14.96","-39.81","SANTA CRUZ DA VITORIA - BA","SANTA CRUZ DA VITORIA","BA","46638.988268413"
"540","-13.29","-39.81","SANTA INES - BA","SANTA INES","BA","69760.058883725"
"541","-15.42","-39.33","SANTA LUZIA - BA","SANTA LUZIA","BA","99386.48199937"
"542","-13.39","-44.19","SANTA MARIA DA VITORIA - BA","SANTA MARIA DA VITORIA","BA","263942.68139025"
"543","-11","-44.51","SANTA RITA DE CASSIA - BA","SANTA RITA DE CASSIA","BA","142393.39759871"
"544","-12.77","-39.52","SANTA TERESINHA - BA","SANTA TERESINHA","BA","55667.805273203"
"545","-11.25","-39.37","SANTALUZ - BA","SANTALUZ","BA","197628.13214967"
"546","-12.98","-44.05","SANTANA - BA","SANTANA","BA","151847.66186063"
"547","-12.01","-38.86","SANTANOPOLIS - BA","SANTANOPOLIS","BA","59512.176894291"
"548","-12.54","-38.71","SANTO AMARO - BA","SANTO AMARO","BA","377892.49453699"
"549","-12.96","-39.26","SANTO ANTONIO DE JESUS - BA","SANTO ANTONIO DE JESUS","BA","473138.33867655"
"550","-12.43","-39.25","SANTO ESTEVAO - BA","SANTO ESTEVAO","BA","246334.21714887"
"551","-12.36","-44.97","SAO DESIDERIO - BA","SAO DESIDERIO","BA","115827.3846411"
"552","-11.5","-39.54","SAO DOMINGOS - BA","SAO DOMINGOS","BA","54454.290891427"
"553","-12.84","-39.08","SAO FELIPE - BA","SAO FELIPE","BA","135449.58795333"
"554","-12.6","-38.97","SAO FELIX - BA","SAO FELIX","BA","84570.263181911"
"555","-13.4","-44.19","SAO FELIX DO CORIBE - BA","SAO FELIX DO CORIBE","BA","77687.124054181"
"556","-12.62","-38.68","SAO FRANCISCO DO CONDE - BA","SAO FRANCISCO DO CONDE","BA","157772.34004511"
"557","-11.22","-41.91","SAO GABRIEL - BA","SAO GABRIEL","BA","121965.1741784"
"558","-12.43","-38.96","SAO GONCALO DOS CAMPOS - BA","SAO GONCALO DOS CAMPOS","BA","158873.49235227"
"559","-15.08","-39.33","SAO JOSE DA VITORIA - BA","SAO JOSE DA VITORIA","BA","44409.619619409"
"560","-11.41","-39.86","SAO JOSE DO JACUIPE - BA","SAO JOSE DO JACUIPE","BA","100243.03045458"
"561","-13.04","-39.45","SAO MIGUEL DAS MATAS - BA","SAO MIGUEL DAS MATAS","BA","64289.671212202"
"562","-12.51","-38.49","SAO SEBASTIAO DO PASSE - BA","SAO SEBASTIAO DO PASSE","BA","237388.04839593"
"563","-12.72","-39.18","SAPEACU - BA","SAPEACU","BA","99556.989832676"
"564","-11.6","-38.6","SATIRO DIAS - BA","SATIRO DIAS","BA","106465.46880142"
"565","-12.73","-38.76","SAUBARA - BA","SAUBARA","BA","63935.263567751"
"566","-10.94","-40.41","SAUDE - BA","SAUDE","BA","114007.06447733"
"567","-12.41","-41.77","SEABRA - BA","SEABRA","BA","278632.77807168"
"568","-14.57","-42.94","SEBASTIAO LARANJEIRAS - BA","SEBASTIAO LARANJEIRAS","BA","53665.114330392"
"569","-10.46","-40.19","SENHOR DO BONFIM - BA","SENHOR DO BONFIM","BA","593079.27431801"
"570","-9.74","-41.88","SENTO SE - BA","SENTO SE","BA","206951.20986474"
"571","-13.57","-43.59","SERRA DO RAMALHO - BA","SERRA DO RAMALHO","BA","206394.11839622"
"572","-12.76","-43.95","SERRA DOURADA - BA","SERRA DOURADA","BA","118861.96173289"
"573","-12.16","-39.33","SERRA PRETA - BA","SERRA PRETA","BA","115049.77824182"
"574","-11.66","-39","SERRINHA - BA","SERRINHA","BA","511954.76720108"
"575","-11.41","-40.3","SERROLANDIA - BA","SERROLANDIA","BA","81269.810467763"
"576","-12.78","-38.4","SIMOES FILHO - BA","SIMOES FILHO","BA","527566.71018706"
"577","-13.08","-43.46","SITIO DO MATO - BA","SITIO DO MATO","BA","62887.935612532"
"578","-10.35","-38.21","SITIO DO QUINTO - BA","SITIO DO QUINTO","BA","87737.626926713"
"579","-9.45","-40.82","SOBRADINHO - BA","SOBRADINHO","BA","130965.91228308"
"580","-12.08","-41.63","SOUTO SOARES - BA","SOUTO SOARES","BA","116728.64737485"
"581","-12.7","-44","TABOCAS DO BREJO VELHO - BA","TABOCAS DO BREJO VELHO","BA","78879.73956069"
"582","-14.02","-41.24","TANHACU - BA","TANHACU","BA","125218.27636352"
"583","-13.54","-42.49","TANQUE NOVO - BA","TANQUE NOVO","BA","98579.069985789"
"584","-11.97","-39.1","TANQUINHO - BA","TANQUINHO","BA","53143.974033881"
"585","-13.53","-39.09","TAPEROA - BA","TAPEROA","BA","111993.21916913"
"586","-11.84","-40.79","TAPIRAMUTA - BA","TAPIRAMUTA","BA","94848.070896119"
"587","-17.53","-39.74","TEIXEIRA DE FREITAS - BA","TEIXEIRA DE FREITAS","BA","633595.16983425"
"588","-12.29","-38.62","TEODORO SAMPAIO - BA","TEODORO SAMPAIO","BA","55785.003597081"
"589","-11.48","-38.99","TEOFILANDIA - BA","TEOFILANDIA","BA","140744.87289711"
"590","-13.6","-39.49","TEOLANDIA - BA","TEOLANDIA","BA","79913.468449773"
"591","-12.39","-38.62","TERRA NOVA - BA","TERRA NOVA","BA","84680.401789598"
"592","-14.97","-41.41","TREMEDAL - BA","TREMEDAL","BA","148949.13363338"
"593","-10.96","-38.78","TUCANO - BA","TUCANO","BA","280499.49138132"
"594","-9.84","-39.48","UAUA - BA","UAUA","BA","159256.82102694"
"595","-13.26","-39.66","UBAIRA - BA","UBAIRA","BA","172045.89330023"
"596","-14.31","-39.32","UBAITABA - BA","UBAITABA","BA","151810.7028845"
"597","-14.21","-39.52","UBATA - BA","UBATA","BA","153081.13837871"
"598","-11.33","-42.13","UIBAI - BA","UIBAI","BA","80162.429629401"
"599","-10.73","-41.32","UMBURANAS - BA","UMBURANAS","BA","98064.171456506"
"600","-15.29","-39.07","UNA - BA","UNA","BA","190155.19321916"
"601","-14.77","-42.65","URANDI - BA","URANDI","BA","109791.59485017"
"602","-14.59","-39.28","URUCUCA - BA","URUCUCA","BA","157613.36122943"
"603","-12.08","-41.09","UTINGA - BA","UTINGA","BA","123293.71652289"
"604","-13.37","-39.07","VALENCA - BA","VALENCA","BA","474820.42366418"
"605","-11.41","-39.46","VALENTE - BA","VALENTE","BA","112358.72638708"
"606","-11.6","-40.13","VARZEA DA ROCA - BA","VARZEA DA ROCA","BA","93776.807385173"
"607","-11.52","-40.32","VARZEA DO POCO - BA","VARZEA DO POCO","BA","70355.523789797"
"608","-11.25","-40.94","VARZEA NOVA - BA","VARZEA NOVA","BA","76455.00445017"
"609","-12.97","-39.39","VARZEDO - BA","VARZEDO","BA","53563.377306101"
"610","-12.96","-38.6","VERA CRUZ - BA","VERA CRUZ","BA","168332.53596622"
"611","-17.22","-40.09","VEREDA - BA","VEREDA","BA","49134.362536682"
"612","-14.86","-40.83","VITORIA DA CONQUISTA - BA","VITORIA DA CONQUISTA","BA","1673102.8329744"
"613","-12.28","-41.16","WAGNER - BA","WAGNER","BA","53454.24984988"
"614","-12.12","-43.88","WANDERLEY - BA","WANDERLEY","BA","88299.672697393"
"615","-13.68","-39.47","WENCESLAU GUIMARAES - BA","WENCESLAU GUIMARAES","BA","148415.44211554"
"616","-10.82","-42.73","XIQUE-XIQUE - BA","XIQUE-XIQUE","BA","281910.39915779"
"617","-7.35","-39.04","ABAIARA - CE","ABAIARA","CE","46976.155548122"
"618","-4.22","-38.7","ACARAPE - CE","ACARAPE","CE","75538.97634321"
"619","-2.88","-40.12","ACARAU - CE","ACARAU","CE","305221.27350458"
"620","-6.09","-39.45","ACOPIARA - CE","ACOPIARA","CE","329203.98927505"
"621","-6.57","-40.12","AIUABA - CE","AIUABA","CE","83189.174173764"
"622","-3.58","-40.54","ALCANTARAS - CE","ALCANTARAS","CE","60243.881226316"
"623","-7","-39.74","ALTANEIRA - CE","ALTANEIRA","CE","37886.541566953"
"624","-5.52","-38.27","ALTO SANTO - CE","ALTO SANTO","CE","89323.373193308"
"625","-3.49","-39.57","AMONTADA - CE","AMONTADA","CE","174616.47752812"
"626","-6.77","-39.98","ANTONINA DO NORTE - CE","ANTONINA DO NORTE","CE","38136.890255246"
"627","-3.94","-39.43","APUIARES - CE","APUIARES","CE","75511.797400813"
"628","-3.9","-38.39","AQUIRAZ - CE","AQUIRAZ","CE","345075.18712763"
"629","-4.56","-37.77","ARACATI - CE","ARACATI","CE","371158.35321145"
"630","-4.37","-38.81","ARACOIABA - CE","ARACOIABA","CE","152346.5345415"
"631","-4.75","-40.83","ARARENDA - CE","ARARENDA","CE","69331.414653647"
"632","-7.21","-40.04","ARARIPE - CE","ARARIPE","CE","111088.70472858"
"633","-4.41","-39.04","ARATUBA - CE","ARATUBA","CE","72050.534939502"
"634","-6.32","-40.16","ARNEIROZ - CE","ARNEIROZ","CE","47822.829735207"
"635","-6.87","-39.87","ASSARE - CE","ASSARE","CE","122672.18404093"
"636","-6.94","-38.96","AURORA - CE","AURORA","CE","159285.00962222"
"637","-6.73","-38.71","BAIXIO - CE","BAIXIO","CE","41671.978338283"
"638","-5.31","-38.92","BANABUIU - CE","BANABUIU","CE","101431.36638394"
"639","-7.3","-39.3","BARBALHA - CE","BARBALHA","CE","292066.98064626"
"640","-4.28","-38.64","BARREIRA - CE","BARREIRA","CE","109019.60143574"
"641","-7.17","-38.78","BARRO - CE","BARRO","CE","133707.98708605"
"642","-3.01","-41.13","BARROQUINHA - CE","BARROQUINHA","CE","79223.585156405"
"643","-4.32","-38.88","BATURITE - CE","BATURITE","CE","178166.60874769"
"644","-4.18","-38.13","BEBERIBE - CE","BEBERIBE","CE","244733.75991021"
"645","-3.05","-40.16","BELA CRUZ - CE","BELA CRUZ","CE","186021.49271079"
"646","-5.12","-39.73","BOA VIAGEM - CE","BOA VIAGEM","CE","294414.15416413"
"647","-7.49","-38.98","BREJO SANTO - CE","BREJO SANTO","CE","218524.56854754"
"648","-2.9","-40.84","CAMOCIM - CE","CAMOCIM","CE","324666.07678838"
"649","-7.07","-40.37","CAMPOS SALES - CE","CAMPOS SALES","CE","166770.73801542"
"650","-4.35","-39.31","CANINDE - CE","CANINDE","CE","427050.06915424"
"651","-4.47","-38.9","CAPISTRANO - CE","CAPISTRANO","CE","93520.298811183"
"652","-4.23","-39.19","CARIDADE - CE","CARIDADE","CE","85606.713908923"
"653","-3.95","-40.47","CARIRE - CE","CARIRE","CE","114821.59845564"
"654","-7.04","-39.28","CARIRIACU - CE","CARIRIACU","CE","152883.42496339"
"655","-6.53","-39.49","CARIUS - CE","CARIUS","CE","107858.23405453"
"656","-4.16","-40.94","CARNAUBAL - CE","CARNAUBAL","CE","95125.254641904"
"657","-4.13","-38.23","CASCAVEL - CE","CASCAVEL","CE","348760.86634863"
"658","-6.13","-39.87","CATARINA - CE","CATARINA","CE","82958.467539188"
"659","-4.64","-40.2","CATUNDA - CE","CATUNDA","CE","55277.193067041"
"660","-3.73","-38.65","CAUCAIA - CE","CAUCAIA","CE","1369868.6630089"
"661","-6.6","-39.06","CEDRO - CE","CEDRO","CE","147191.34419015"
"662","-3.03","-41.24","CHAVAL - CE","CHAVAL","CE","74400.755434018"
"663","-4.84","-39.14","CHORO - CE","CHORO","CE","75715.305682386"
"664","-4.3","-38.49","CHOROZINHO - CE","CHOROZINHO","CE","106300.01792424"
"665","-3.53","-40.65","COREAU - CE","COREAU","CE","120820.91299413"
"666","-5.17","-40.67","CRATEUS - CE","CRATEUS","CE","403746.73829354"
"667","-7.23","-39.4","CRATO - CE","CRATO","CE","584441.89837314"
"668","-4.4","-40.91","CROATA - CE","CROATA","CE","101633.8021427"
"669","-2.91","-40.17","CRUZ - CE","CRUZ","CE","113428.23030231"
"670","-5.91","-39.26","DEPUTADO IRAPUAN PINHEIRO - CE","DEPUTADO IRAPUAN PINHEIRO","CE","53307.678975053"
"671","-6.03","-38.34","ERERE - CE","ERERE","CE","38944.117543278"
"672","-3.89","-38.45","EUSEBIO - CE","EUSEBIO","CE","175011.16253052"
"673","-6.93","-39.56","FARIAS BRITO - CE","FARIAS BRITO","CE","124649.04733365"
"674","-3.79","-40.26","FORQUILHA - CE","FORQUILHA","CE","115188.89443507"
"675","-3.71","-38.54","FORTALEZA - CE","FORTALEZA","CE","1965513"
"676","-4.45","-37.79","FORTIM - CE","FORTIM","CE","76101.782424155"
"677","-3.76","-40.81","FRECHEIRINHA - CE","FRECHEIRINHA","CE","75638.495230189"
"678","-4.05","-39.45","GENERAL SAMPAIO - CE","GENERAL SAMPAIO","CE","30269.24797465"
"679","-4.04","-40.75","GRACA - CE","GRACA","CE","96512.967399471"
"680","-3.12","-40.82","GRANJA - CE","GRANJA","CE","273074.22954218"
"681","-6.88","-39.21","GRANJEIRO - CE","GRANJEIRO","CE","30296.517139605"
"682","-3.91","-40.38","GROAIRAS - CE","GROAIRAS","CE","57215.708131196"
"683","-4.04","-38.63","GUAIUBA - CE","GUAIUBA","CE","116291.54195065"
"684","-4.16","-40.74","GUARACIABA DO NORTE - CE","GUARACIABA DO NORTE","CE","194369.51778891"
"685","-4.26","-38.93","GUARAMIRANGA - CE","GUARAMIRANGA","CE","34956.847761501"
"686","-4.4","-40.43","HIDROLANDIA - CE","HIDROLANDIA","CE","110344.32552057"
"687","-4.09","-38.49","HORIZONTE - CE","HORIZONTE","CE","176077.22280247"
"688","-4.8","-38.75","IBARETAMA - CE","IBARETAMA","CE","68179.810096009"
"689","-3.92","-40.88","IBIAPINA - CE","IBIAPINA","CE","132148.63667991"
"690","-4.97","-38.63","IBICUITINGA - CE","IBICUITINGA","CE","60069.139797828"
"691","-4.71","-37.35","ICAPUI - CE","ICAPUI","CE","100207.38073929"
"692","-6.4","-38.86","ICO - CE","ICO","CE","400714.52096017"
"693","-6.35","-39.29","IGUATU - CE","IGUATU","CE","545240.23431777"
"694","-5.39","-40.3","INDEPENDENCIA - CE","INDEPENDENCIA","CE","158790.56737081"
"695","-4.9","-40.75","IPAPORANGA - CE","IPAPORANGA","CE","72840.256925842"
"696","-6.79","-38.71","IPAUMIRIM - CE","IPAUMIRIM","CE","72770.864824537"
"697","-4.32","-40.71","IPU - CE","IPU","CE","217693.03692274"
"698","-4.54","-40.71","IPUEIRAS - CE","IPUEIRAS","CE","226801.72664671"
"699","-5.81","-38.3","IRACEMA - CE","IRACEMA","CE","83806.938799374"
"700","-3.74","-39.78","IRAUCUBA - CE","IRAUCUBA","CE","108976.42148904"
"701","-4.67","-37.82","ITAICABA - CE","ITAICABA","CE","40077.482798097"
"702","-3.96","-38.52","ITAITINGA - CE","ITAITINGA","CE","161232.94032428"
"703","-3.68","-39.58","ITAPAGE - CE","ITAPAGE","CE","249590.89110796"
"704","-3.36","-39.83","ITAPIPOCA - CE","ITAPIPOCA","CE","493157.6648775"
"705","-4.56","-38.92","ITAPIUNA - CE","ITAPIUNA","CE","97180.073376661"
"706","-2.92","-39.91","ITAREMA - CE","ITAREMA","CE","165779.31838132"
"707","-4.52","-39.62","ITATIRA - CE","ITATIRA","CE","88617.485414112"
"708","-5.61","-38.76","JAGUARETAMA - CE","JAGUARETAMA","CE","117065.86639035"
"709","-5.65","-38.62","JAGUARIBARA - CE","JAGUARIBARA","CE","48604.479715378"
"710","-5.89","-38.62","JAGUARIBE - CE","JAGUARIBE","CE","202380.45876405"
"711","-4.83","-37.78","JAGUARUANA - CE","JAGUARUANA","CE","177581.15282073"
"712","-7.58","-39.29","JARDIM - CE","JARDIM","CE","161663.87014336"
"713","-7.68","-39.01","JATI - CE","JATI","CE","41676.451118646"
"714","-2.79","-40.51","JIJOCA DE JERICOACOARA - CE","JIJOCA DE JERICOACOARA","CE","63388.102982503"
"715","-7.21","-39.31","JUAZEIRO DO NORTE - CE","JUAZEIRO DO NORTE","CE","1171993.9181539"
"716","-6.52","-39.52","JUCAS - CE","JUCAS","CE","130451.44039399"
"717","-6.75","-38.97","LAVRAS DA MANGABEIRA - CE","LAVRAS DA MANGABEIRA","CE","205566.00130815"
"718","-5.14","-38.09","LIMOEIRO DO NORTE - CE","LIMOEIRO DO NORTE","CE","282124.83634005"
"719","-4.85","-39.57","MADALENA - CE","MADALENA","CE","90916.819345719"
"720","-3.87","-38.62","MARACANAU - CE","MARACANAU","CE","1020325.8759901"
"721","-3.89","-38.68","MARANGUAPE - CE","MARANGUAPE","CE","569217.09197199"
"722","-3.12","-40.14","MARCO - CE","MARCO","CE","112993.69740158"
"723","-3.22","-40.69","MARTINOPOLE - CE","MARTINOPOLE","CE","50352.075251284"
"724","-3.52","-40.34","MASSAPE - CE","MASSAPE","CE","166110.90217883"
"725","-7.38","-38.77","MAURITI - CE","MAURITI","CE","265814.76704427"
"726","-3.54","-40.45","MERUOCA - CE","MERUOCA","CE","71610.204148472"
"727","-7.31","-38.94","MILAGRES - CE","MILAGRES","CE","164327.43292565"
"728","-5.67","-39.19","MILHA - CE","MILHA","CE","82650.843746268"
"729","-3.56","-39.97","MIRAIMA - CE","MIRAIMA","CE","69644.302666155"
"730","-7.25","-39.14","MISSAO VELHA - CE","MISSAO VELHA","CE","192630.62663157"
"731","-5.74","-39.62","MOMBACA - CE","MOMBACA","CE","248856.17733207"
"732","-4.78","-40.06","MONSENHOR TABOSA - CE","MONSENHOR TABOSA","CE","100449.57807388"
"733","-5.1","-38.37","MORADA NOVA - CE","MORADA NOVA","CE","421673.35370497"
"734","-3.46","-40.68","MORAUJO - CE","MORAUJO","CE","44111.436875641"
"735","-3.22","-40.12","MORRINHOS - CE","MORRINHOS","CE","95595.535480072"
"736","-3.9","-40.74","MUCAMBO - CE","MUCAMBO","CE","76718.305027122"
"737","-4.3","-38.99","MULUNGU - CE","MULUNGU","CE","49970.673935128"
"738","-7.09","-39.68","NOVA OLINDA - CE","NOVA OLINDA","CE","72246.659450514"
"739","-4.7","-40.56","NOVA RUSSAS - CE","NOVA RUSSAS","CE","182173.31740009"
"740","-5.53","-40.77","NOVO ORIENTE - CE","NOVO ORIENTE","CE","161671.40037686"
"741","-4.49","-38.59","OCARA - CE","OCARA","CE","138588.93503746"
"742","-6.24","-38.91","OROS - CE","OROS","CE","131848.33182854"
"743","-4.17","-38.46","PACAJUS - CE","PACAJUS","CE","235263.1528591"
"744","-3.98","-38.62","PACATUBA - CE","PACATUBA","CE","271972.4342916"
"745","-4.22","-38.92","PACOTI - CE","PACOTI","CE","67010.50351928"
"746","-3.98","-40.69","PACUJA - CE","PACUJA","CE","36360.393652132"
"747","-4.74","-37.95","PALHANO - CE","PALHANO","CE","46679.844264574"
"748","-4.15","-38.84","PALMACIA - CE","PALMACIA","CE","67693.751751879"
"749","-3.41","-39.03","PARACURU - CE","PARACURU","CE","156525.77304643"
"750","-3.43","-39.14","PARAIPABA - CE","PARAIPABA","CE","142991.7744025"
"751","-6.21","-40.69","PARAMBU - CE","PARAMBU","CE","191273.07392163"
"752","-4.09","-39.23","PARAMOTI - CE","PARAMOTI","CE","70906.171521682"
"753","-5.45","-39.71","PEDRA BRANCA - CE","PEDRA BRANCA","CE","226977.28352234"
"754","-7.82","-39.07","PENAFORTE - CE","PENAFORTE","CE","38270.072472828"
"755","-3.79","-39.27","PENTECOSTE - CE","PENTECOSTE","CE","176060.53361388"
"756","-6.04","-38.46","PEREIRO - CE","PEREIRO","CE","86856.302135947"
"757","-4.02","-38.3","PINDORETAMA - CE","PINDORETAMA","CE","92552.918927716"
"758","-5.8","-39.41","PIQUET CARNEIRO - CE","PIQUET CARNEIRO","CE","77984.884994009"
"759","-4.24","-40.64","PIRES FERREIRA - CE","PIRES FERREIRA","CE","70838.741953679"
"760","-4.74","-40.92","PORANGA - CE","PORANGA","CE","76400.716206247"
"761","-7.53","-39.11","PORTEIRAS - CE","PORTEIRAS","CE","98365.937730956"
"762","-7.09","-40.02","POTENGI - CE","POTENGI","CE","52191.765553409"
"763","-5.66","-38.25","POTIRETAMA - CE","POTIRETAMA","CE","39918.133218413"
"764","-5.84","-40.7","QUITERIANOPOLIS - CE","QUITERIANOPOLIS","CE","108935.32977665"
"765","-4.97","-39.01","QUIXADA - CE","QUIXADA","CE","434314.79614776"
"766","-6.25","-39.2","QUIXELO - CE","QUIXELO","CE","95674.170090875"
"767","-5.19","-39.29","QUIXERAMOBIM - CE","QUIXERAMOBIM","CE","382676.25204908"
"768","-5.07","-37.98","QUIXERE - CE","QUIXERE","CE","106723.49012098"
"769","-4.22","-38.73","REDENCAO - CE","REDENCAO","CE","138051.64717297"
"770","-4.14","-40.58","RERIUTABA - CE","RERIUTABA","CE","123596.0449169"
"771","-4.94","-37.97","RUSSAS - CE","RUSSAS","CE","339044.95032344"
"772","-6.54","-39.9","SABOEIRO - CE","SABOEIRO","CE","101126.76337018"
"773","-7.28","-40.45","SALITRE - CE","SALITRE","CE","83155.967347026"
"774","-4.33","-40.15","SANTA QUITERIA - CE","SANTA QUITERIA","CE","264024.27143571"
"775","-3.46","-40.21","SANTANA DO ACARAU - CE","SANTANA DO ACARAU","CE","168392.74680501"
"776","-7.18","-39.73","SANTANA DO CARIRI - CE","SANTANA DO CARIRI","CE","109918.62736719"
"777","-4.04","-40.86","SAO BENEDITO - CE","SAO BENEDITO","CE","235855.22617178"
"778","-3.6","-38.96","SAO GONCALO DO AMARANTE - CE","SAO GONCALO DO AMARANTE","CE","202199.54364788"
"779","-5.27","-38.27","SAO JOAO DO JAGUARIBE - CE","SAO JOAO DO JAGUARIBE","CE","51018.47675117"
"780","-3.67","-39.24","SAO LUIS DO CURU - CE","SAO LUIS DO CURU","CE","68289.211170086"
"781","-5.58","-39.37","SENADOR POMPEU - CE","SENADOR POMPEU","CE","168170.06724171"
"782","-3.35","-40.46","SENADOR SA - CE","SENADOR SA","CE","34619.321111526"
"783","-3.68","-40.35","SOBRAL - CE","SOBRAL","CE","910262.03195774"
"784","-5.73","-39","SOLONOPOLE - CE","SOLONOPOLE","CE","99516.141629225"
"785","-5.24","-38.13","TABULEIRO DO NORTE - CE","TABULEIRO DO NORTE","CE","160153.47659155"
"786","-4.83","-40.32","TAMBORIL - CE","TAMBORIL","CE","181867.26506235"
"787","-6.68","-39.76","TARRAFAS - CE","TARRAFAS","CE","53347.015281494"
"788","-6","-40.29","TAUA - CE","TAUA","CE","305978.70022342"
"789","-3.98","-39.58","TEJUCUOCA - CE","TEJUCUOCA","CE","73676.196063075"
"790","-3.73","-40.99","TIANGUA - CE","TIANGUA","CE","303801.64919208"
"791","-3.27","-39.26","TRAIRI - CE","TRAIRI","CE","274021.09507539"
"792","-3.58","-39.43","TURURU - CE","TURURU","CE","70447.59944926"
"793","-3.85","-40.92","UBAJARA - CE","UBAJARA","CE","183108.96866789"
"794","-6.64","-38.7","UMARI - CE","UMARI","CE","53050.679417933"
"795","-3.67","-39.35","UMIRIM - CE","UMIRIM","CE","99709.085075271"
"796","-3.62","-39.5","URUBURETAMA - CE","URUBURETAMA","CE","94916.336193468"
"797","-3.31","-40.55","URUOCA - CE","URUOCA","CE","68408.694753224"
"798","-4.19","-40.47","VARJOTA - CE","VARJOTA","CE","89921.825061178"
"799","-6.78","-39.29","VARZEA ALEGRE - CE","VARZEA ALEGRE","CE","220707.38028777"
"800","-3.56","-41.09","VICOSA DO CEARA - CE","VICOSA DO CEARA","CE","274350.86987793"
"801","-15.78","-47.93","BRASILIA - DF","BRASILIA","DF","1821946"
"802","-20.07","-41.12","AFONSO CLAUDIO - ES","AFONSO CLAUDIO","ES","210199.10307887"
"803","-18.54","-40.97","AGUA DOCE DO NORTE - ES","AGUA DOCE DO NORTE","ES","79438.080920391"
"804","-18.98","-40.74","AGUIA BRANCA - ES","AGUIA BRANCA","ES","59185.432505028"
"805","-20.76","-41.53","ALEGRE - ES","ALEGRE","ES","198242.88743853"
"806","-20.63","-40.75","ALFREDO CHAVES - ES","ALFREDO CHAVES","ES","84598.270392306"
"807","-19.05","-41.01","ALTO RIO NOVO - ES","ALTO RIO NOVO","ES","46229.373389884"
"808","-20.79","-40.65","ANCHIETA - ES","ANCHIETA","ES","111105.30928638"
"809","-21.15","-41.56","APIACA - ES","APIACA","ES","44102.227991768"
"810","-19.82","-40.27","ARACRUZ - ES","ARACRUZ","ES","392874.520278"
"811","-20.91","-41.19","ATILIO VIVACQUA - ES","ATILIO VIVACQUA","ES","44805.625577608"
"812","-19.51","-41.01","BAIXO GUANDU - ES","BAIXO GUANDU","ES","164047.42078521"
"813","-18.75","-40.89","BARRA DE SAO FRANCISCO - ES","BARRA DE SAO FRANCISCO","ES","246616.70015249"
"814","-18.54","-40.29","BOA ESPERANCA - ES","BOA ESPERANCA","ES","79947.767141524"
"815","-21.11","-41.67","BOM JESUS DO NORTE - ES","BOM JESUS DO NORTE","ES","53606.740845359"
"816","-20.14","-41.29","BREJETUBA - ES","BREJETUBA","ES","59782.167101623"
"817","-20.84","-41.11","CACHOEIRO DE ITAPEMIRIM - ES","CACHOEIRO DE ITAPEMIRIM","ES","1022894.6078632"
"818","-20.26","-40.42","CARIACICA - ES","CARIACICA","ES","1915915.6609099"
"819","-20.6","-41.18","CASTELO - ES","CASTELO","ES","187508.30450024"
"820","-19.53","-40.63","COLATINA - ES","COLATINA","ES","706959.62097228"
"821","-18.59","-39.73","CONCEICAO DA BARRA - ES","CONCEICAO DA BARRA","ES","169868.03467204"
"822","-20.36","-41.24","CONCEICAO DO CASTELO - ES","CONCEICAO DO CASTELO","ES","67025.417322916"
"823","-20.62","-41.68","DIVINO DE SAO LOURENCO - ES","DIVINO DE SAO LOURENCO","ES","27663.08690579"
"824","-20.36","-40.65","DOMINGOS MARTINS - ES","DOMINGOS MARTINS","ES","158466.96424757"
"825","-20.68","-41.84","DORES DO RIO PRETO - ES","DORES DO RIO PRETO","ES","36136.249597926"
"826","-18.37","-40.83","ECOPORANGA - ES","ECOPORANGA","ES","134716.02355767"
"827","-19.93","-40.4","FUNDAO - ES","FUNDAO","ES","69891.142517697"
"828","-20.77","-41.67","GUACUI - ES","GUACUI","ES","166724.63300478"
"829","-20.65","-40.51","GUARAPARI - ES","GUARAPARI","ES","505709.09941295"
"830","-20.23","-41.51","IBATIBA - ES","IBATIBA","ES","108202.58781196"
"831","-19.83","-40.37","IBIRACU - ES","IBIRACU","ES","62788.75103613"
"832","-20.54","-41.66","IBITIRAMA - ES","IBITIRAMA","ES","51083.803551237"
"833","-20.79","-40.81","ICONHA - ES","ICONHA","ES","70715.683326886"
"834","-20.34","-41.64","IRUPI - ES","IRUPI","ES","66852.331700667"
"835","-19.8","-40.85","ITAGUACU - ES","ITAGUACU","ES","90632.922976459"
"836","-21.01","-40.83","ITAPEMIRIM - ES","ITAPEMIRIM","ES","170982.68175332"
"837","-19.87","-40.87","ITARANA - ES","ITARANA","ES","67627.927431091"
"838","-20.34","-41.53","IUNA - ES","IUNA","ES","156890.66492365"
"839","-18.9","-40.07","JAGUARE - ES","JAGUARE","ES","123075.43407677"
"840","-20.78","-41.39","JERONIMO MONTEIRO - ES","JERONIMO MONTEIRO","ES","61480.100026447"
"841","-19.75","-40.38","JOAO NEIVA - ES","JOAO NEIVA","ES","92517.193104954"
"842","-19.89","-41.05","LARANJA DA TERRA - ES","LARANJA DA TERRA","ES","69107.698157632"
"843","-19.39","-40.07","LINHARES - ES","LINHARES","ES","635888.68779309"
"844","-18.86","-41.12","MANTENOPOLIS - ES","MANTENOPOLIS","ES","77829.53610781"
"845","-21.04","-40.82","MARATAIZES - ES","MARATAIZES","ES","159863.81628652"
"846","-20.41","-40.68","MARECHAL FLORIANO - ES","MARECHAL FLORIANO","ES","75203.040086891"
"847","-19.41","-40.54","MARILANDIA - ES","MARILANDIA","ES","65169.373644879"
"848","-21.06","-41.36","MIMOSO DO SUL - ES","MIMOSO DO SUL","ES","169578.83473519"
"849","-18.12","-40.36","MONTANHA - ES","MONTANHA","ES","120231.45923598"
"850","-18.09","-40.51","MUCURICI - ES","MUCURICI","ES","40094.426136156"
"851","-20.46","-41.41","MUNIZ FREIRE - ES","MUNIZ FREIRE","ES","128333.19989138"
"852","-20.95","-41.34","MUQUI - ES","MUQUI","ES","88087.43616322"
"853","-18.71","-40.4","NOVA VENECIA - ES","NOVA VENECIA","ES","290409.64271158"
"854","-19.22","-40.85","PANCAS - ES","PANCAS","ES","125727.94482329"
"855","-18.03","-40.15","PEDRO CANARIO - ES","PEDRO CANARIO","ES","150771.56828895"
"856","-18.38","-40.12","PINHEIROS - ES","PINHEIROS","ES","131027.51525497"
"857","-20.83","-40.72","PIUMA - ES","PIUMA","ES","74557.16863107"
"858","-18.12","-40.54","PONTO BELO - ES","PONTO BELO","ES","42477.982152205"
"859","-21.09","-41.04","PRESIDENTE KENNEDY - ES","PRESIDENTE KENNEDY","ES","62171.801119279"
"860","-19.26","-40.33","RIO BANANAL - ES","RIO BANANAL","ES","110446.60805647"
"861","-20.86","-40.93","RIO NOVO DO SUL - ES","RIO NOVO DO SUL","ES","66230.595323968"
"862","-20.1","-40.53","SANTA LEOPOLDINA - ES","SANTA LEOPOLDINA","ES","73943.429398682"
"863","-20.04","-40.74","SANTA MARIA DE JETIBA - ES","SANTA MARIA DE JETIBA","ES","159658.73804155"
"864","-19.93","-40.6","SANTA TERESA - ES","SANTA TERESA","ES","133505.44565184"
"865","-19.14","-40.62","SAO DOMINGOS DO NORTE - ES","SAO DOMINGOS DO NORTE","ES","45070.297323199"
"866","-19.01","-40.53","SAO GABRIEL DA PALHA - ES","SAO GABRIEL DA PALHA","ES","153164.92527501"
"867","-21.02","-41.65","SAO JOSE DO CALCADO - ES","SAO JOSE DO CALCADO","ES","66219.148341219"
"868","-18.71","-39.85","SAO MATEUS - ES","SAO MATEUS","ES","541132.15850728"
"869","-19.73","-40.65","SAO ROQUE DO CANAA - ES","SAO ROQUE DO CANAA","ES","59967.212545166"
"870","-20.12","-40.3","SERRA - ES","SERRA","ES","1638457.7100214"
"871","-19.19","-40.09","SOORETAMA - ES","SOORETAMA","ES","100732.55348323"
"872","-20.67","-41","VARGEM ALTA - ES","VARGEM ALTA","ES","88108.348050118"
"873","-20.34","-41.13","VENDA NOVA DO IMIGRANTE - ES","VENDA NOVA DO IMIGRANTE","ES","98682.598082828"
"874","-20.39","-40.49","VIANA - ES","VIANA","ES","326366.81712896"
"875","-18.61","-40.61","VILA PAVAO - ES","VILA PAVAO","ES","53344.91014965"
"876","-18.99","-40.38","VILA VALERIO - ES","VILA VALERIO","ES","88578.173274068"
"877","-20.33","-40.29","VILA VELHA - ES","VILA VELHA","ES","1836739.8090813"
"878","-20.31","-40.33","VITORIA - ES","VITORIA","ES","1649950.6649652"
"879","-16.75","-49.43","ABADIA DE GOIAS - GO","ABADIA DE GOIAS","GO","21125.013960711"
"880","-16.2","-48.7","ABADIANIA - GO","ABADIANIA","GO","61561.756166169"
"881","-17.39","-50.37","ACREUNA - GO","ACREUNA","GO","96979.341320865"
"882","-16.41","-50.16","ADELANDIA - GO","ADELANDIA","GO","18222.58109581"
"883","-14.98","-47.78","AGUA FRIA DE GOIAS - GO","AGUA FRIA DE GOIAS","GO","23236.551488979"
"884","-18.07","-48.76","AGUA LIMPA - GO","AGUA LIMPA","GO","13260.369880905"
"885","-15.76","-48.28","AGUAS LINDAS DE GOIAS - GO","AGUAS LINDAS DE GOIAS","GO","409245.0474767"
"886","-16.08","-48.5","ALEXANIA - GO","ALEXANIA","GO","112775.57291477"
"887","-17.72","-49.48","ALOANDIA - GO","ALOANDIA","GO","12945.718767997"
"888","-14.19","-49.33","ALTO HORIZONTE - GO","ALTO HORIZONTE","GO","15140.481068651"
"889","-14.13","-47.51","ALTO PARAISO DE GOIAS - GO","ALTO PARAISO DE GOIAS","GO","34999.816229769"
"890","-14.48","-46.49","ALVORADA DO NORTE - GO","ALVORADA DO NORTE","GO","52542.04314979"
"891","-13.92","-49.29","AMARALINA - GO","AMARALINA","GO","17047.424613471"
"892","-16.25","-49.98","AMERICANO DO BRASIL - GO","AMERICANO DO BRASIL","GO","32652.938639079"
"893","-16.61","-51.09","AMORINOPOLIS - GO","AMORINOPOLIS","GO","26719.741460839"
"894","-16.32","-48.95","ANAPOLIS - GO","ANAPOLIS","GO","1814162.5615021"
"895","-18.33","-48.21","ANHANGUERA - GO","ANHANGUERA","GO","5550.1793014288"
"896","-16.46","-49.96","ANICUNS - GO","ANICUNS","GO","118152.81454395"
"897","-16.82","-49.24","APARECIDA DE GOIANIA - GO","APARECIDA DE GOIANIA","GO","1841718.6269809"
"898","-18.29","-51.14","APARECIDA DO RIO DOCE - GO","APARECIDA DO RIO DOCE","GO","14374.334083483"
"899","-18.96","-51.92","APORE - GO","APORE","GO","20774.601684196"
"900","-16.35","-49.68","ARACU - GO","ARACU","GO","24842.707918502"
"901","-15.89","-52.25","ARAGARCAS - GO","ARAGARCAS","GO","111162.5380988"
"902","-16.91","-49.45","ARAGOIANIA - GO","ARAGOIANIA","GO","35658.836994361"
"903","-15.09","-50.63","ARAGUAPAZ - GO","ARAGUAPAZ","GO","47957.291091283"
"904","-16.38","-51.56","ARENOPOLIS - GO","ARENOPOLIS","GO","27516.652567095"
"905","-14.92","-51.08","ARUANA - GO","ARUANA","GO","36006.032813834"
"906","-16.68","-50.46","AURILANDIA - GO","AURILANDIA","GO","32223.255872895"
"907","-16.46","-49.75","AVELINOPOLIS - GO","AVELINOPOLIS","GO","17088.363848014"
"908","-16.19","-52.54","BALIZA - GO","BALIZA","GO","27224.869634858"
"909","-14.97","-48.91","BARRO ALTO - GO","BARRO ALTO","GO","46844.143821652"
"910","-16.97","-48.95","BELA VISTA DE GOIAS - GO","BELA VISTA DE GOIAS","GO","120961.49085073"
"911","-16.21","-52.17","BOM JARDIM DE GOIAS - GO","BOM JARDIM DE GOIAS","GO","49082.996930684"
"912","-18.21","-49.74","BOM JESUS DE GOIAS - GO","BOM JESUS DE GOIAS","GO","92127.191547425"
"913","-16.61","-48.96","BONFINOPOLIS - GO","BONFINOPOLIS","GO","29626.886488099"
"914","-13.63","-49.81","BONOPOLIS - GO","BONOPOLIS","GO","15959.864672178"
"915","-16.43","-49.38","BRAZABRANTES - GO","BRAZABRANTES","GO","17604.454902558"
"916","-15.24","-51.16","BRITANIA - GO","BRITANIA","GO","36015.989099544"
"917","-18.14","-49.04","BURITI ALEGRE - GO","BURITI ALEGRE","GO","59871.506397657"
"918","-16.18","-50.43","BURITI DE GOIAS - GO","BURITI DE GOIAS","GO","15938.206270518"
"919","-14.47","-46.4","BURITINOPOLIS - GO","BURITINOPOLIS","GO","23212.435892118"
"920","-15.8","-46.92","CABECEIRAS - GO","CABECEIRAS","GO","37527.83105282"
"921","-18.76","-50.94","CACHOEIRA ALTA - GO","CACHOEIRA ALTA","GO","53159.12505976"
"922","-16.66","-50.64","CACHOEIRA DE GOIAS - GO","CACHOEIRA DE GOIAS","GO","8820.7834406465"
"923","-18.49","-49.47","CACHOEIRA DOURADA - GO","CACHOEIRA DOURADA","GO","50461.939982534"
"924","-18.55","-51.13","CACU - GO","CACU","GO","70478.428099442"
"925","-16.95","-51.81","CAIAPONIA - GO","CAIAPONIA","GO","98559.395419952"
"926","-17.74","-48.62","CALDAS NOVAS - GO","CALDAS NOVAS","GO","264967.17588055"
"927","-16.71","-49","CALDAZINHA - GO","CALDAZINHA","GO","16876.844941337"
"928","-16.76","-49.69","CAMPESTRE DE GOIAS - GO","CAMPESTRE DE GOIAS","GO","16315.349855776"
"929","-13.79","-48.57","CAMPINACU - GO","CAMPINACU","GO","25083.048928994"
"930","-14.31","-49.15","CAMPINORTE - GO","CAMPINORTE","GO","58679.967871335"
"931","-17.63","-47.78","CAMPO ALEGRE DE GOIAS - GO","CAMPO ALEGRE DE GOIAS","GO","30744.208761482"
"932","-13.03","-46.77","CAMPOS BELOS - GO","CAMPOS BELOS","GO","95906.58782469"
"933","-14.25","-49.65","CAMPOS VERDES - GO","CAMPOS VERDES","GO","85866.100256644"
"934","-15.35","-49.7","CARMO DO RIO VERDE - GO","CARMO DO RIO VERDE","GO","53057.344098773"
"935","-18.09","-50.2","CASTELANDIA - GO","CASTELANDIA","GO","23520.624287915"
"936","-18.17","-47.94","CATALAO - GO","CATALAO","GO","362190.01014737"
"937","-16.44","-49.49","CATURAI - GO","CATURAI","GO","27206.36081084"
"938","-13.79","-47.45","CAVALCANTE - GO","CAVALCANTE","GO","62945.754498559"
"939","-15.3","-49.59","CERES - GO","CERES","GO","140657.37720255"
"940","-16.97","-49.77","CEZARINA - GO","CEZARINA","GO","39815.18424203"
"941","-18.4","-52.54","CHAPADAO DO CEU - GO","CHAPADAO DO CEU","GO","16735.94058463"
"942","-16.07","-47.92","CIDADE OCIDENTAL - GO","CIDADE OCIDENTAL","GO","209695.71456641"
"943","-15.79","-48.77","COCALZINHO DE GOIAS - GO","COCALZINHO DE GOIAS","GO","85550.599757443"
"944","-14.15","-48.07","COLINAS DO SUL - GO","COLINAS DO SUL","GO","23962.966942617"
"945","-16.29","-50.54","CORREGO DO OURO - GO","CORREGO DO OURO","GO","21634.891541936"
"946","-15.92","-48.8","CORUMBA DE GOIAS - GO","CORUMBA DE GOIAS","GO","53092.510212768"
"947","-18.14","-48.56","CORUMBAIBA - GO","CORUMBAIBA","GO","40102.987719176"
"948","-16.76","-47.61","CRISTALINA - GO","CRISTALINA","GO","183775.10019459"
"949","-17.19","-48.7","CRISTIANOPOLIS - GO","CRISTIANOPOLIS","GO","17711.265362286"
"950","-14.54","-49.96","CRIXAS - GO","CRIXAS","GO","99041.847774312"
"951","-17.28","-49.38","CROMINIA - GO","CROMINIA","GO","25101.396839502"
"952","-18.26","-48.15","CUMARI - GO","CUMARI","GO","21487.68987569"
"953","-14.56","-46.17","DAMIANOPOLIS - GO","DAMIANOPOLIS","GO","23323.357281081"
"954","-16.25","-49.37","DAMOLANDIA - GO","DAMOLANDIA","GO","16255.027845113"
"955","-18.15","-47.56","DAVINOPOLIS - GO","DAVINOPOLIS","GO","12764.348057423"
"956","-16.23","-51.25","DIORAMA - GO","DIORAMA","GO","17569.454125685"
"957","-13.29","-46.39","DIVINOPOLIS DE GOIAS - GO","DIVINOPOLIS DE GOIAS","GO","34316.683134175"
"958","-16.72","-52.31","DOVERLANDIA - GO","DOVERLANDIA","GO","46287.04719296"
"959","-17.42","-49.66","EDEALINA - GO","EDEALINA","GO","26371.229523919"
"960","-17.33","-49.93","EDEIA - GO","EDEIA","GO","65570.655893545"
"961","-13.86","-49.07","ESTRELA DO NORTE - GO","ESTRELA DO NORTE","GO","24519.360523009"
"962","-15.44","-50.36","FAINA - GO","FAINA","GO","51311.027971181"
"963","-16.18","-50.78","FAZENDA NOVA - GO","FAZENDA NOVA","GO","51800.563454555"
"964","-16.58","-50.3","FIRMINOPOLIS - GO","FIRMINOPOLIS","GO","60255.769963688"
"965","-14.44","-47.05","FLORES DE GOIAS - GO","FLORES DE GOIAS","GO","32402.249902768"
"966","-15.53","-47.33","FORMOSA - GO","FORMOSA","GO","418069.23344392"
"967","-13.65","-48.88","FORMOSO - GO","FORMOSO","GO","40496.111108349"
"968","-16.51","-49.02","GOIANAPOLIS - GO","GOIANAPOLIS","GO","67269.074508157"
"969","-18.13","-48.08","GOIANDIRA - GO","GOIANDIRA","GO","34761.385562685"
"970","-15.31","-49.11","GOIANESIA - GO","GOIANESIA","GO","303085.51357535"
"971","-16.67","-49.25","GOIANIA - GO","GOIANIA","GO","1002377"
"972","-16.49","-49.42","GOIANIRA - GO","GOIANIRA","GO","96237.285894063"
"973","-15.93","-50.14","GOIAS - GO","GOIAS","GO","187106.64130984"
"974","-18.01","-49.35","GOIATUBA - GO","GOIATUBA","GO","191629.01166143"
"975","-18.64","-50.06","GOUVELANDIA - GO","GOUVELANDIA","GO","27417.525505365"
"976","-16.83","-49.53","GUAPO - GO","GUAPO","GO","80800.075013976"
"977","-15.61","-50.02","GUARAITA - GO","GUARAITA","GO","20249.36528859"
"978","-13.93","-46.48","GUARANI DE GOIAS - GO","GUARANI DE GOIAS","GO","32418.243288601"
"979","-14.73","-49.7","GUARINOS - GO","GUARINOS","GO","20325.018178754"
"980","-15.71","-49.82","HEITORAI - GO","HEITORAI","GO","18106.100589633"
"981","-16.96","-49.22","HIDROLANDIA - GO","HIDROLANDIA","GO","74514.99321117"
"982","-14.72","-49.46","HIDROLINA - GO","HIDROLINA","GO","29089.866518791"
"983","-14.09","-46.63","IACIARA - GO","IACIARA","GO","63741.916034574"
"984","-18.48","-49.98","INACIOLANDIA - GO","INACIOLANDIA","GO","34075.151633246"
"985","-17.14","-49.98","INDIARA - GO","INDIARA","GO","78956.775112436"
"986","-16.35","-49.49","INHUMAS - GO","INHUMAS","GO","268105.68836914"
"987","-17.72","-48.16","IPAMERI - GO","IPAMERI","GO","138219.43986606"
"988","-16.44","-51.11","IPORA - GO","IPORA","GO","197673.14933041"
"989","-16.31","-50.9","ISRAELANDIA - GO","ISRAELANDIA","GO","20738.353066486"
"990","-16.02","-49.81","ITABERAI - GO","ITABERAI","GO","164333.005347"
"991","-15.91","-49.6","ITAGUARI - GO","ITAGUARI","GO","28279.537436544"
"992","-15.75","-49.63","ITAGUARU - GO","ITAGUARU","GO","37276.570247988"
"993","-19.06","-51.54","ITAJA - GO","ITAJA","GO","37598.41089351"
"994","-14.95","-49.54","ITAPACI - GO","ITAPACI","GO","80631.311208886"
"995","-15.82","-50.61","ITAPIRAPUA - GO","ITAPIRAPUA","GO","56963.221866446"
"996","-15.56","-49.94","ITAPURANGA - GO","ITAPURANGA","GO","191389.68565766"
"997","-18.76","-51.34","ITARUMA - GO","ITARUMA","GO","39340.71655484"
"998","-16.2","-49.6","ITAUCU - GO","ITAUCU","GO","57699.241649238"
"999","-18.42","-49.21","ITUMBIARA - GO","ITUMBIARA","GO","539962.21369069"
"1000","-16.6","-50.79","IVOLANDIA - GO","IVOLANDIA","GO","21252.598926096"
"1001","-17.04","-50.14","JANDAIA - GO","JANDAIA","GO","45178.783286271"
"1002","-15.75","-49.33","JARAGUA - GO","JARAGUA","GO","197215.50040351"
"1003","-17.88","-51.71","JATAI - GO","JATAI","GO","431407.44482268"
"1004","-16.17","-50.95","JAUPACI - GO","JAUPACI","GO","19234.599136952"
"1005","-15.95","-49.37","JESUPOLIS - GO","JESUPOLIS","GO","13934.708114295"
"1006","-17.8","-49.61","JOVIANIA - GO","JOVIANIA","GO","44389.298739148"
"1007","-15.86","-50.86","JUSSARA - GO","JUSSARA","GO","130173.85419303"
"1008","-16.61","-48.74","LEOPOLDO DE BULHOES - GO","LEOPOLDO DE BULHOES","GO","51459.455965062"
"1009","-16.25","-47.95","LUZIANIA - GO","LUZIANIA","GO","673457.44197175"
"1010","-17.29","-49.49","MAIRIPOTABA - GO","MAIRIPOTABA","GO","18184.495652143"
"1011","-14.48","-46.11","MAMBAI - GO","MAMBAI","GO","27556.227067631"
"1012","-14.01","-49.17","MARA ROSA - GO","MARA ROSA","GO","80083.002535559"
"1013","-17.98","-48.64","MARZAGAO - GO","MARZAGAO","GO","12435.046438174"
"1014","-15.44","-50.74","MATRINCHA - GO","MATRINCHA","GO","28682.465309533"
"1015","-17.97","-50.33","MAURILANDIA - GO","MAURILANDIA","GO","58511.927783333"
"1016","-15.05","-48.16","MIMOSO DE GOIAS - GO","MIMOSO DE GOIAS","GO","17861.373607246"
"1017","-13.53","-48.22","MINACU - GO","MINACU","GO","229869.30894541"
"1018","-17.56","-52.55","MINEIROS - GO","MINEIROS","GO","235326.10467622"
"1019","-16.54","-50.73","MOIPORA - GO","MOIPORA","GO","13288.896084115"
"1020","-13.25","-46.9","MONTE ALEGRE DE GOIAS - GO","MONTE ALEGRE DE GOIAS","GO","41803.515920214"
"1021","-16","-51.39","MONTES CLAROS DE GOIAS - GO","MONTES CLAROS DE GOIAS","GO","52523.32919635"
"1022","-17.44","-51.17","MONTIVIDIU - GO","MONTIVIDIU","GO","40093.509002629"
"1023","-13.11","-48.6","MONTIVIDIU DO NORTE - GO","MONTIVIDIU DO NORTE","GO","15690.307473019"
"1024","-17.73","-49.1","MORRINHOS - GO","MORRINHOS","GO","218917.80041995"
"1025","-15.32","-50.05","MORRO AGUDO DE GOIAS - GO","MORRO AGUDO DE GOIAS","GO","14802.958997188"
"1026","-16.12","-50.21","MOSSAMEDES - GO","MOSSAMEDES","GO","43353.319242746"
"1027","-14.74","-50.57","MOZARLANDIA - GO","MOZARLANDIA","GO","62866.953293409"
"1028","-13.77","-50.28","MUNDO NOVO - GO","MUNDO NOVO","GO","37238.251826977"
"1029","-13.73","-49.27","MUTUNOPOLIS - GO","MUTUNOPOLIS","GO","27203.730705687"
"1030","-16.58","-49.88","NAZARIO - GO","NAZARIO","GO","42165.512724417"
"1031","-16.4","-49.21","NEROPOLIS - GO","NEROPOLIS","GO","99977.252070596"
"1032","-14.47","-48.46","NIQUELANDIA - GO","NIQUELANDIA","GO","217002.92396705"
"1033","-15.02","-49.89","NOVA AMERICA - GO","NOVA AMERICA","GO","13435.573123421"
"1034","-18.05","-48.25","NOVA AURORA - GO","NOVA AURORA","GO","12327.2466813"
"1035","-14.09","-50.32","NOVA CRIXAS - GO","NOVA CRIXAS","GO","66564.175725347"
"1036","-15.14","-49.57","NOVA GLORIA - GO","NOVA GLORIA","GO","57307.215862959"
"1037","-14.28","-49.38","NOVA IGUACU DE GOIAS - GO","NOVA IGUACU DE GOIAS","GO","18226.043031836"
"1038","-13.74","-46.88","NOVA ROMA - GO","NOVA ROMA","GO","25292.121144677"
"1039","-16.37","-49.32","NOVA VENEZA - GO","NOVA VENEZA","GO","40640.948762577"
"1040","-16.03","-50.71","NOVO BRASIL - GO","NOVO BRASIL","GO","30836.975824581"
"1041","-16.05","-48.03","NOVO GAMA - GO","NOVO GAMA","GO","411718.85446469"
"1042","-13.24","-49.5","NOVO PLANALTO - GO","NOVO PLANALTO","GO","23295.597514947"
"1043","-17.03","-48.29","ORIZONA - GO","ORIZONA","GO","82870.16343925"
"1044","-16.22","-49.19","OURO VERDE DE GOIAS - GO","OURO VERDE DE GOIAS","GO","29259.065579373"
"1045","-18.23","-47.83","OUVIDOR - GO","OUVIDOR","GO","26703.508857718"
"1046","-15.16","-48.28","PADRE BERNARDO - GO","PADRE BERNARDO","GO","107099.85058263"
"1047","-16.73","-51.53","PALESTINA DE GOIAS - GO","PALESTINA DE GOIAS","GO","23230.405352624"
"1048","-16.8","-49.92","PALMEIRAS DE GOIAS - GO","PALMEIRAS DE GOIAS","GO","112153.33391578"
"1049","-17.32","-48.42","PALMELO - GO","PALMELO","GO","13963.862243892"
"1050","-16.79","-50.16","PALMINOPOLIS - GO","PALMINOPOLIS","GO","21606.021239058"
"1051","-18.17","-49.35","PANAMA - GO","PANAMA","GO","17947.271894979"
"1052","-18.91","-50.65","PARANAIGUARA - GO","PARANAIGUARA","GO","51789.513373327"
"1053","-16.94","-50.44","PARAUNA - GO","PARAUNA","GO","77560.866899451"
"1054","-17.52","-52.06","PEROLANDIA - GO","PEROLANDIA","GO","11291.820431631"
"1055","-16.09","-49.33","PETROLINA DE GOIAS - GO","PETROLINA DE GOIAS","GO","65436.784834576"
"1056","-14.76","-49.57","PILAR DE GOIAS - GO","PILAR DE GOIAS","GO","23414.291841022"
"1057","-17.3","-49.01","PIRACANJUBA - GO","PIRACANJUBA","GO","147866.91895448"
"1058","-16.42","-51.82","PIRANHAS - GO","PIRANHAS","GO","85367.623634521"
"1059","-15.85","-48.95","PIRENOPOLIS - GO","PIRENOPOLIS","GO","135557.02843574"
"1060","-17.3","-48.28","PIRES DO RIO - GO","PIRES DO RIO","GO","151717.76058468"
"1061","-15.45","-47.61","PLANALTINA - GO","PLANALTINA","GO","373845.60199347"
"1062","-17.52","-49.44","PONTALINA - GO","PONTALINA","GO","108441.85450651"
"1063","-13.44","-49.14","PORANGATU - GO","PORANGATU","GO","257840.03733705"
"1064","-17.81","-50.16","PORTEIRAO - GO","PORTEIRAO","GO","16994.281677814"
"1065","-17.35","-52.67","PORTELANDIA - GO","PORTELANDIA","GO","19304.175028678"
"1066","-14.09","-46.36","POSSE - GO","POSSE","GO","162765.22644785"
"1067","-17.25","-49.24","PROFESSOR JAMIL - GO","PROFESSOR JAMIL","GO","22942.613021296"
"1068","-18.44","-50.45","QUIRINOPOLIS - GO","QUIRINOPOLIS","GO","225181.26812018"
"1069","-15.31","-49.58","RIALMA - GO","RIALMA","GO","67520.158512457"
"1070","-15.44","-49.51","RIANAPOLIS - GO","RIANAPOLIS","GO","30969.670016234"
"1071","-17.77","-48.77","RIO QUENTE - GO","RIO QUENTE","GO","11958.040307492"
"1072","-17.79","-50.92","RIO VERDE - GO","RIO VERDE","GO","649280.52716609"
"1073","-15.16","-49.8","RUBIATABA - GO","RUBIATABA","GO","108628.88725845"
"1074","-16.19","-50.31","SANCLERLANDIA - GO","SANCLERLANDIA","GO","52130.596790865"
"1075","-16.57","-49.69","SANTA BARBARA DE GOIAS - GO","SANTA BARBARA DE GOIAS","GO","30587.391812017"
"1076","-17.31","-48.48","SANTA CRUZ DE GOIAS - GO","SANTA CRUZ DE GOIAS","GO","20225.606375157"
"1077","-15.76","-51.1","SANTA FE DE GOIAS - GO","SANTA FE DE GOIAS","GO","24062.926813357"
"1078","-17.81","-50.59","SANTA HELENA DE GOIAS - GO","SANTA HELENA DE GOIAS","GO","222957.26103906"
"1079","-15.29","-49.42","SANTA ISABEL - GO","SANTA ISABEL","GO","24491.322075662"
"1080","-17.32","-53.2","SANTA RITA DO ARAGUAIA - GO","SANTA RITA DO ARAGUAIA","GO","33073.016997585"
"1081","-15.13","-49.12","SANTA RITA DO NOVO DESTINO - GO","SANTA RITA DO NOVO DESTINO","GO","19119.224306479"
"1082","-16.08","-49.49","SANTA ROSA DE GOIAS - GO","SANTA ROSA DE GOIAS","GO","24390.61936242"
"1083","-13.71","-49.01","SANTA TEREZA DE GOIAS - GO","SANTA TEREZA DE GOIAS","GO","34354.28755646"
"1084","-14.43","-49.7","SANTA TEREZINHA DE GOIAS - GO","SANTA TEREZINHA DE GOIAS","GO","90115.209810464"
"1085","-17.56","-50.63","SANTO ANTONIO DA BARRA - GO","SANTO ANTONIO DA BARRA","GO","23795.310252163"
"1086","-16.48","-49.31","SANTO ANTONIO DE GOIAS - GO","SANTO ANTONIO DE GOIAS","GO","16566.692029825"
"1087","-15.94","-48.25","SANTO ANTONIO DO DESCOBERTO - GO","SANTO ANTONIO DO DESCOBERTO","GO","304193.89179697"
"1088","-13.39","-46.31","SAO DOMINGOS - GO","SAO DOMINGOS","GO","59034.556027204"
"1089","-15.93","-49.26","SAO FRANCISCO DE GOIAS - GO","SAO FRANCISCO DE GOIAS","GO","41132.452713322"
"1090","-16.81","-50.41","SAO JOAO DA PARAUNA - GO","SAO JOAO DA PARAUNA","GO","39117.868300154"
"1091","-14.7","-47.52","SAO JOAO D'ALIANCA - GO","SAO JOAO D'ALIANCA","GO","13689.702433754"
"1092","-16.52","-50.37","SAO LUIS DE MONTES BELOS - GO","SAO LUIS DE MONTES BELOS","GO","172779.0571139"
"1093","-14.86","-49.32","SAO LUIZ DO NORTE - GO","SAO LUIZ DO NORTE","GO","23026.11326729"
"1094","-13.27","-50.16","SAO MIGUEL DO ARAGUAIA - GO","SAO MIGUEL DO ARAGUAIA","GO","145503.18705447"
"1095","-17.05","-48.66","SAO MIGUEL DO PASSA QUATRO - GO","SAO MIGUEL DO PASSA QUATRO","GO","19383.094488925"
"1096","-15.35","-49.81","SAO PATRICIO - GO","SAO PATRICIO","GO","11056.45734089"
"1097","-18.99","-50.54","SAO SIMAO - GO","SAO SIMAO","GO","79764.400436304"
"1098","-16.7","-49.09","SENADOR CANEDO - GO","SENADOR CANEDO","GO","278982.326125"
"1099","-18.3","-51.96","SERRANOPOLIS - GO","SERRANOPOLIS","GO","43355.207085414"
"1100","-16.65","-48.6","SILVANIA - GO","SILVANIA","GO","114180.84125631"
"1101","-14.47","-46.48","SIMOLANDIA - GO","SIMOLANDIA","GO","41741.10502239"
"1102","-14.8","-46.25","SITIO D'ABADIA - GO","SITIO D'ABADIA","GO","19562.066401582"
"1103","-16.05","-49.6","TAQUARAL DE GOIAS - GO","TAQUARAL DE GOIAS","GO","25827.677049697"
"1104","-13.77","-47.26","TERESINA DE GOIAS - GO","TERESINA DE GOIAS","GO","13254.306759494"
"1105","-16.39","-49.08","TEREZOPOLIS DE GOIAS - GO","TEREZOPOLIS DE GOIAS","GO","27017.243724505"
"1106","-18.35","-47.78","TRES RANCHOS - GO","TRES RANCHOS","GO","18539.342241482"
"1107","-16.64","-49.48","TRINDADE - GO","TRINDADE","GO","432207.68386961"
"1108","-13.5","-48.74","TROMBAS - GO","TROMBAS","GO","21945.055502506"
"1109","-16.61","-50.13","TURVANIA - GO","TURVANIA","GO","33004.940699791"
"1110","-17.85","-50.3","TURVELANDIA - GO","TURVELANDIA","GO","19188.693019339"
"1111","-14.28","-49.92","UIRAPURU - GO","UIRAPURU","GO","19477.095576288"
"1112","-14.52","-49.14","URUACU - GO","URUACU","GO","213316.49413574"
"1113","-15.49","-49.68","URUANA - GO","URUANA","GO","100411.49204594"
"1114","-17.46","-48.2","URUTAI - GO","URUTAI","GO","17749.365632319"
"1115","-16.06","-47.97","VALPARAISO DE GOIAS - GO","VALPARAISO DE GOIAS","GO","489011.07955797"
"1116","-17.04","-49.63","VARJAO - GO","VARJAO","GO","22240.804461395"
"1117","-16.74","-48.51","VIANOPOLIS - GO","VIANOPOLIS","GO","66363.546751076"
"1118","-17.73","-49.8","VICENTINOPOLIS - GO","VICENTINOPOLIS","GO","38738.625198652"
"1119","-15.03","-47.05","VILA BOA - GO","VILA BOA","GO","17918.836083039"
"1120","-15.45","-48.88","VILA PROPICIO - GO","VILA PROPICIO","GO","22706.463455095"
"1121","-4.94","-47.5","ACAILANDIA - MA","ACAILANDIA","MA","470448.72376269"
"1122","-4.13","-43.32","AFONSO CUNHA - MA","AFONSO CUNHA","MA","28367.579991405"
"1123","-2.84","-42.11","AGUA DOCE DO MARANHAO - MA","AGUA DOCE DO MARANHAO","MA","59521.730067463"
"1124","-2.4","-44.41","ALCANTARA - MA","ALCANTARA","MA","122928.86771217"
"1125","-4.62","-43.47","ALDEIAS ALTAS - MA","ALDEIAS ALTAS","MA","119417.97368599"
"1126","-4.16","-45.47","ALTAMIRA DO MARANHAO - MA","ALTAMIRA DO MARANHAO","MA","42128.967094702"
"1127","-4.21","-44.44","ALTO ALEGRE DO MARANHAO - MA","ALTO ALEGRE DO MARANHAO","MA","103465.88330976"
"1128","-3.69","-45.9","ALTO ALEGRE DO PINDARE - MA","ALTO ALEGRE DO PINDARE","MA","158778.40858238"
"1129","-9.11","-45.93","ALTO PARNAIBA - MA","ALTO PARNAIBA","MA","71778.937244638"
"1130","-1.56","-45.93","AMAPA DO MARANHAO - MA","AMAPA DO MARANHAO","MA","30850.415506618"
"1131","-5.56","-46.74","AMARANTE DO MARANHAO - MA","AMARANTE DO MARANHAO","MA","202332.6689413"
"1132","-3.26","-44.62","ANAJATUBA - MA","ANAJATUBA","MA","131049.52878118"
"1133","-3.67","-43.11","ANAPURUS - MA","ANAPURUS","MA","63010.009994849"
"1134","-1.46","-45.1","APICUM-ACU - MA","APICUM-ACU","MA","73009.323568548"
"1135","-2.95","-45.66","ARAGUANA - MA","ARAGUANA","MA","65747.543876151"
"1136","-2.89","-41.9","ARAIOSES - MA","ARAIOSES","MA","231711.12298925"
"1137","-4.73","-45.9","ARAME - MA","ARAME","MA","181095.07768977"
"1138","-3.45","-44.78","ARARI - MA","ARARI","MA","160632.90345673"
"1139","-2.83","-44.05","AXIXA - MA","AXIXA","MA","61565.157765467"
"1140","-4.22","-44.78","BACABAL - MA","BACABAL","MA","559709.61934789"
"1141","-2.97","-44.31","BACABEIRA - MA","BACABEIRA","MA","66534.212632049"
"1142","-1.7","-45.13","BACURI - MA","BACURI","MA","70527.689260503"
"1143","-2.7","-44.73","BACURITUBA - MA","BACURITUBA","MA","28043.260452256"
"1144","-7.53","-46.03","BALSAS - MA","BALSAS","MA","315239.3044835"
"1145","-6.75","-43.02","BARAO DE GRAJAU - MA","BARAO DE GRAJAU","MA","90065.537972027"
"1146","-5.5","-45.24","BARRA DO CORDA - MA","BARRA DO CORDA","MA","446311.52383737"
"1147","-2.74","-42.82","BARREIRINHAS - MA","BARREIRINHAS","MA","199570.31156179"
"1148","-3.73","-45.31","BELA VISTA DO MARANHAO - MA","BELA VISTA DO MARANHAO","MA","50166.046201711"
"1149","-3.15","-43.51","BELAGUA - MA","BELAGUA","MA","40389.777836963"
"1150","-7.22","-44.55","BENEDITO LEITE - MA","BENEDITO LEITE","MA","38840.800469172"
"1151","-2.44","-44.78","BEQUIMAO - MA","BEQUIMAO","MA","127688.42365595"
"1152","-4.58","-44.76","BERNARDO DO MEARIM - MA","BERNARDO DO MEARIM","MA","27487.221012226"
"1153","-1.78","-46.3","BOA VISTA DO GURUPI - MA","BOA VISTA DO GURUPI","MA","25014.818252754"
"1154","-3.56","-45.99","BOM JARDIM - MA","BOM JARDIM","MA","224725.97790469"
"1155","-4.42","-46.76","BOM JESUS DAS SELVAS - MA","BOM JESUS DAS SELVAS","MA","90761.041427554"
"1156","-4.22","-45.03","BOM LUGAR - MA","BOM LUGAR","MA","60289.766696725"
"1157","-3.68","-42.75","BREJO - MA","BREJO","MA","153862.1051189"
"1158","-4.08","-45.49","BREJO DE AREIA - MA","BREJO DE AREIA","MA","67445.948811699"
"1159","-3.94","-42.92","BURITI - MA","BURITI","MA","161143.34693529"
"1160","-5.83","-43.83","BURITI BRAVO - MA","BURITI BRAVO","MA","143232.78254779"
"1161","-4.34","-46.4","BURITICUPU - MA","BURITICUPU","MA","191900.64288635"
"1162","-5.59","-47.01","BURITIRANA - MA","BURITIRANA","MA","68972.43683044"
"1163","-2.92","-44.05","CACHOEIRA GRANDE - MA","CACHOEIRA GRANDE","MA","41051.895422575"
"1164","-2.88","-44.67","CAJAPIO - MA","CAJAPIO","MA","57571.715895338"
"1165","-3.32","-45.01","CAJARI - MA","CAJARI","MA","103727.86826096"
"1166","-6.17","-47.36","CAMPESTRE DO MARANHAO - MA","CAMPESTRE DO MARANHAO","MA","58243.070804694"
"1167","-1.44","-45.71","CANDIDO MENDES - MA","CANDIDO MENDES","MA","94542.753485984"
"1168","-3.63","-44.37","CANTANHEDE - MA","CANTANHEDE","MA","91237.896396892"
"1169","-4.72","-44.32","CAPINZAL DO NORTE - MA","CAPINZAL DO NORTE","MA","66002.214639297"
"1170","-7.33","-47.46","CAROLINA - MA","CAROLINA","MA","171349.77538216"
"1171","-1.19","-46.02","CARUTAPERA - MA","CARUTAPERA","MA","105659.20694504"
"1172","-4.85","-43.35","CAXIAS - MA","CAXIAS","MA","864104.0664171"
"1173","-2","-44.53","CEDRAL - MA","CEDRAL","MA","52784.879416879"
"1174","-2.19","-44.82","CENTRAL DO MARANHAO - MA","CENTRAL DO MARANHAO","MA","33404.689560649"
"1175","-2.36","-46","CENTRO DO GUILHERME - MA","CENTRO DO GUILHERME","MA","37649.900997335"
"1176","-2.1","-46.12","CENTRO NOVO DO MARANHAO - MA","CENTRO NOVO DO MARANHAO","MA","82519.806395883"
"1177","-3.74","-43.36","CHAPADINHA - MA","CHAPADINHA","MA","409039.03491628"
"1178","-5.17","-47.78","CIDELANDIA - MA","CIDELANDIA","MA","65903.861485432"
"1179","-4.45","-43.88","CODO - MA","CODO","MA","672322.76304017"
"1180","-4.25","-43.01","COELHO NETO - MA","COELHO NETO","MA","289417.29100535"
"1181","-6.02","-44.24","COLINAS - MA","COLINAS","MA","190526.5260438"
"1182","-3.83","-44.89","CONCEICAO DO LAGO-ACU - MA","CONCEICAO DO LAGO-ACU","MA","87022.499893462"
"1183","-4.13","-44.12","COROATA - MA","COROATA","MA","316810.92854743"
"1184","-1.82","-44.86","CURURUPU - MA","CURURUPU","MA","164576.72278583"
"1185","-5.55","-47.42","DAVINOPOLIS - MA","DAVINOPOLIS","MA","84934.658313161"
"1186","-5.03","-44.43","DOM PEDRO - MA","DOM PEDRO","MA","136591.67869172"
"1187","-4.15","-42.94","DUQUE BACELAR - MA","DUQUE BACELAR","MA","53529.060258265"
"1188","-4.88","-44.68","ESPERANTINOPOLIS - MA","ESPERANTINOPOLIS","MA","114289.76029722"
"1189","-6.56","-47.45","ESTREITO - MA","ESTREITO","MA","132176.71022148"
"1190","-6.96","-46.68","FEIRA NOVA DO MARANHAO - MA","FEIRA NOVA DO MARANHAO","MA","48632.580405579"
"1191","-6.15","-44.89","FERNANDO FALCAO - MA","FERNANDO FALCAO","MA","28860.327743143"
"1192","-6.43","-46.19","FORMOSA DA SERRA NEGRA - MA","FORMOSA DA SERRA NEGRA","MA","55864.465035356"
"1193","-6.96","-46.17","FORTALEZA DOS NOGUEIRAS - MA","FORTALEZA DOS NOGUEIRAS","MA","64634.363320401"
"1194","-5.73","-44.15","FORTUNA - MA","FORTUNA","MA","99949.785184226"
"1195","-1.4","-45.78","GODOFREDO VIANA - MA","GODOFREDO VIANA","MA","53905.523734236"
"1196","-5.15","-44.29","GONCALVES DIAS - MA","GONCALVES DIAS","MA","103510.0705908"
"1197","-5.02","-44.27","GOVERNADOR ARCHER - MA","GOVERNADOR ARCHER","MA","59717.004724813"
"1198","-5.74","-47.36","GOVERNADOR EDISON LOBAO - MA","GOVERNADOR EDISON LOBAO","MA","50108.780318344"
"1199","-5.32","-44.24","GOVERNADOR EUGENIO BARROS - MA","GOVERNADOR EUGENIO BARROS","MA","81098.021706603"
"1200","-5.46","-44.07","GOVERNADOR LUIZ ROCHA - MA","GOVERNADOR LUIZ ROCHA","MA","49604.762208666"
"1201","-3.42","-45.67","GOVERNADOR NEWTON BELLO - MA","GOVERNADOR NEWTON BELLO","MA","74091.564386379"
"1202","-2.12","-45.88","GOVERNADOR NUNES FREIRE - MA","GOVERNADOR NUNES FREIRE","MA","125336.97173414"
"1203","-5.41","-44.33","GRACA ARANHA - MA","GRACA ARANHA","MA","39110.014839096"
"1204","-5.81","-46.13","GRAJAU - MA","GRAJAU","MA","250769.39979361"
"1205","-2.13","-44.6","GUIMARAES - MA","GUIMARAES","MA","83812.345180656"
"1206","-2.59","-43.46","HUMBERTO DE CAMPOS - MA","HUMBERTO DE CAMPOS","MA","116612.51297941"
"1207","-2.77","-44.06","ICATU - MA","ICATU","MA","128825.32999116"
"1208","-3.66","-45.22","IGARAPE DO MEIO - MA","IGARAPE DO MEIO","MA","56967.141712391"
"1209","-4.58","-44.85","IGARAPE GRANDE - MA","IGARAPE GRANDE","MA","70052.874284225"
"1210","-5.52","-47.47","IMPERATRIZ - MA","IMPERATRIZ","MA","1360369.0465117"
"1211","-5.14","-45.79","ITAIPAVA DO GRAJAU - MA","ITAIPAVA DO GRAJAU","MA","53715.903977057"
"1212","-3.39","-44.35","ITAPECURU MIRIM - MA","ITAPECURU MIRIM","MA","323343.50156003"
"1213","-4.45","-47.52","ITINGA DO MARANHAO - MA","ITINGA DO MARANHAO","MA","116809.71063185"
"1214","-5.81","-44.22","JATOBA - MA","JATOBA","MA","43855.619254134"
"1215","-5.37","-45.63","JENIPAPO DOS VIEIRAS - MA","JENIPAPO DOS VIEIRAS","MA","55296.327983895"
"1216","-5.44","-47.4","JOAO LISBOA - MA","JOAO LISBOA","MA","142625.16565834"
"1217","-4.96","-44.7","JOSELANDIA - MA","JOSELANDIA","MA","88479.266424198"
"1218","-1.84","-46.09","JUNCO DO MARANHAO - MA","JUNCO DO MARANHAO","MA","35539.461496789"
"1219","-4.28","-45.24","LAGO DA PEDRA - MA","LAGO DA PEDRA","MA","261410.91629839"
"1220","-4.44","-44.93","LAGO DO JUNCO - MA","LAGO DO JUNCO","MA","58154.255804315"
"1221","-4.49","-44.89","LAGO DOS RODRIGUES - MA","LAGO DOS RODRIGUES","MA","51051.325420048"
"1222","-3.95","-44.82","LAGO VERDE - MA","LAGO VERDE","MA","81301.429113738"
"1223","-6.04","-43.52","LAGOA DO MATO - MA","LAGOA DO MATO","MA","55157.053537767"
"1224","-4.81","-45.33","LAGOA GRANDE DO MARANHAO - MA","LAGOA GRANDE DO MARANHAO","MA","58004.386187715"
"1225","-6.18","-47.03","LAJEADO NOVO - MA","LAJEADO NOVO","MA","31794.963048025"
"1226","-4.52","-44.46","LIMA CAMPOS - MA","LIMA CAMPOS","MA","74743.637814943"
"1227","-7.08","-45.14","LORETO - MA","LORETO","MA","64503.104413014"
"1228","-1.26","-45.87","LUIS DOMINGUES - MA","LUIS DOMINGUES","MA","44316.498729843"
"1229","-3.39","-42.2","MAGALHAES DE ALMEIDA - MA","MAGALHAES DE ALMEIDA","MA","80441.464949575"
"1230","-2.04","-45.95","MARACACUME - MA","MARACACUME","MA","82213.911377232"
"1231","-4.59","-45.57","MARAJA DO SENA - MA","MARAJA DO SENA","MA","48055.063037716"
"1232","-2.31","-45.84","MARANHAOZINHO - MA","MARANHAOZINHO","MA","46827.918715564"
"1233","-3.62","-43.11","MATA ROMA - MA","MATA ROMA","MA","73442.642336773"
"1234","-3.1","-45.03","MATINHA - MA","MATINHA","MA","107431.99534304"
"1235","-5.51","-43.19","MATOES - MA","MATOES","MA","156814.05747873"
"1236","-3.63","-44.55","MATOES DO NORTE - MA","MATOES DO NORTE","MA","36566.243185494"
"1237","-3.58","-42.6","MILAGRES DO MARANHAO - MA","MILAGRES DO MARANHAO","MA","40235.429129932"
"1238","-6.37","-44.36","MIRADOR - MA","MIRADOR","MA","111860.96859565"
"1239","-3.56","-44.58","MIRANDA DO NORTE - MA","MIRANDA DO NORTE","MA","100794.2375585"
"1240","-2.06","-44.78","MIRINZAL - MA","MIRINZAL","MA","87909.837903305"
"1241","-3.49","-45.25","MONCAO - MA","MONCAO","MA","149235.76649697"
"1242","-5.83","-47.06","MONTES ALTOS - MA","MONTES ALTOS","MA","66504.536431729"
"1243","-2.86","-44.03","MORROS - MA","MORROS","MA","85540.644923755"
"1244","-3.46","-43.9","NINA RODRIGUES - MA","NINA RODRIGUES","MA","46677.189837694"
"1245","-7.11","-46.25","NOVA COLINAS - MA","NOVA COLINAS","MA","22288.051683014"
"1246","-6.73","-44.04","NOVA IORQUE - MA","NOVA IORQUE","MA","28416.067834484"
"1247","-2.84","-45.69","NOVA OLINDA DO MARANHAO - MA","NOVA OLINDA DO MARANHAO","MA","105460.2347718"
"1248","-3.94","-45.11","OLHO D'AGUA DAS CUNHAS - MA","OLHO D'AGUA DAS CUNHAS","MA","113009.83365084"
"1249","-2.99","-44.99","OLINDA NOVA DO MARANHAO - MA","OLINDA NOVA DO MARANHAO","MA","73321.222698591"
"1250","-2.53","-44.1","PACO DO LUMIAR - MA","PACO DO LUMIAR","MA","381665.6554288"
"1251","-2.64","-44.89","PALMEIRANDIA - MA","PALMEIRANDIA","MA","106903.78379527"
"1252","-6.43","-43.98","PARAIBANO - MA","PARAIBANO","MA","112777.97218778"
"1253","-5.68","-43.09","PARNARAMA - MA","PARNARAMA","MA","197284.15200157"
"1254","-6.18","-43.78","PASSAGEM FRANCA - MA","PASSAGEM FRANCA","MA","105795.84274387"
"1255","-6.6","-44.07","PASTOS BONS - MA","PASTOS BONS","MA","89502.748978277"
"1256","-2.71","-42.53","PAULINO NEVES - MA","PAULINO NEVES","MA","67789.618859873"
"1257","-4.18","-45.2","PAULO RAMOS - MA","PAULO RAMOS","MA","128190.41821865"
"1258","-4.56","-44.59","PEDREIRAS - MA","PEDREIRAS","MA","255861.21755097"
"1259","-2.97","-45.34","PEDRO DO ROSARIO - MA","PEDRO DO ROSARIO","MA","67540.524841526"
"1260","-3.29","-45.17","PENALVA - MA","PENALVA","MA","190140.80533615"
"1261","-2.57","-44.85","PERI MIRIM - MA","PERI MIRIM","MA","109741.12758316"
"1262","-4.38","-44.33","PERITORO - MA","PERITORO","MA","94811.543135065"
