ID,LATITUDE,LONGITUDE,Mun/UF,MUNICIPIO,UF,Valor
2,-10.94,-69.56,ASSIS BRASIL - AC,ASSIS BRASIL,AC,17.842.150.988.839
3,-11.01,-68.74,BRASILEIA - AC,BRASILEIA,AC,9.337.339.431.323
4,-9.83,-67.95,BUJARI - AC,BUJARI,AC,2.851.656.749.286
5,-10.57,-67.67,CAPIXABA - AC,CAPIXABA,AC,18.886.455.136.104
6,-7.63,-72.67,CRUZEIRO DO SUL - AC,CRUZEIRO DO SUL,AC,36.458.613.831.064
7,-11.02,-68.74,EPITACIOLANDIA - AC,EPITACIOLANDIA,AC,60.489.739.920.769
8,-8.16,-70.35,FEIJO - AC,FEIJO,AC,14.066.524.787.856
9,-9.43,-71.88,JORDAO - AC,JORDAO,AC,25.407.154.503.166
10,-7.61,-72.89,MANCIO LIMA - AC,MANCIO LIMA,AC,55.464.222.446.319
11,-8.83,-69.26,MANOEL URBANO - AC,MANOEL URBANO,AC,3.620.002.438.698
12,-8.94,-72.79,MARECHAL THAUMATURGO - AC,MARECHAL THAUMATURGO,AC,50.555.101.062.783
13,-10.27,-67.15,PLACIDO DE CASTRO - AC,PLACIDO DE CASTRO,AC,83.591.738.491.223
14,-9.58,-67.53,PORTO ACRE - AC,PORTO ACRE,AC,51.717.893.964.079
15,-8.26,-72.74,PORTO WALTER - AC,PORTO WALTER,AC,35.809.977.624.542
16,-9.97,-67.81,RIO BRANCO - AC,RIO BRANCO,AC,14.760.486.200.057
17,-7.74,-72.64,RODRIGUES ALVES - AC,RODRIGUES ALVES,AC,54.883.187.572.235
18,-9.43,-70.49,SANTA ROSA DO PURUS - AC,SANTA ROSA DO PURUS,AC,10.990.219.334.904
19,-9.06,-68.65,SENA MADUREIRA - AC,SENA MADUREIRA,AC,15.521.700.548.922
20,-10.15,-67.73,SENADOR GUIOMARD - AC,SENADOR GUIOMARD,AC,88.074.579.103.305
21,-8.16,-70.76,TARAUACA - AC,TARAUACA,AC,15.293.212.746.233
22,-10.65,-68.5,XAPURI - AC,XAPURI,AC,84.617.850.174.034
23,-9.26,-37.93,AGUA BRANCA - AL,AGUA BRANCA,AL,11.432.851.313.619
24,-9.68,-36.3,ANADIA - AL,ANADIA,AL,10.793.982.846.746
25,-9.75,-36.66,ARAPIRACA - AL,ARAPIRACA,AL,10.406.336.438.575
26,-9.5,-36.02,ATALAIA - AL,ATALAIA,AL,25.602.884.361.183
27,-9.4,-35.5,BARRA DE SANTO ANTONIO - AL,BARRA DE SANTO ANTONIO,AL,56.980.261.677.616
28,-9.84,-35.9,BARRA DE SAO MIGUEL - AL,BARRA DE SAO MIGUEL,AL,37.840.140.710.035
29,-9.67,-37.12,BATALHA - AL,BATALHA,AL,85.456.720.395.317
30,-9.57,-36.49,BELEM - AL,BELEM,AL,35.555.018.594.736
31,-9.82,-37.28,BELO MONTE - AL,BELO MONTE,AL,4.168.804.103.437
32,-9.64,-36.22,BOCA DA MATA - AL,BOCA DA MATA,AL,13.394.974.741.433
33,-9.24,-36.01,BRANQUINHA - AL,BRANQUINHA,AL,64.397.619.322.342
34,-9.4,-36.99,CACIMBINHAS - AL,CACIMBINHAS,AL,59.926.119.390.802
35,-9.39,-36.15,CAJUEIRO - AL,CAJUEIRO,AL,11.896.122.330.606
36,-8.84,-35.56,CAMPESTRE - AL,CAMPESTRE,AL,43.221.249.140.408
37,-9.78,-36.35,CAMPO ALEGRE - AL,CAMPO ALEGRE,AL,26.142.006.670.902
38,-9.95,-36.79,CAMPO GRANDE - AL,CAMPO GRANDE,AL,63.902.920.100.054
39,-9.12,-37.6,CANAPI - AL,CANAPI,AL,111.852.944.811
40,-9.4,-36.07,CAPELA - AL,CAPELA,AL,13.929.554.618.091
41,-9.48,-37.37,CARNEIROS - AL,CARNEIROS,AL,37.924.703.650.497
42,-9.25,-36.29,CHA PRETA - AL,CHA PRETA,AL,47.759.937.993.043
43,-9.63,-36.57,COITE DO NOIA - AL,COITE DO NOIA,AL,65.066.049.549.352
44,-8.9,-35.72,COLONIA LEOPOLDINA - AL,COLONIA LEOPOLDINA,AL,11.789.927.480.507
45,-9.63,-35.8,COQUEIRO SECO - AL,COQUEIRO SECO,AL,3.415.795.789.182
46,-10.12,-36.17,CORURIPE - AL,CORURIPE,AL,29.223.101.388.048
47,-9.61,-36.76,CRAIBAS - AL,CRAIBAS,AL,11.741.789.335.913
48,-9.38,-37.99,DELMIRO GOUVEIA - AL,DELMIRO GOUVEIA,AL,24.599.354.079.854
49,-9.39,-37.1,DOIS RIACHOS - AL,DOIS RIACHOS,AL,71.876.635.975.352
50,-9.39,-36.76,ESTRELA DE ALAGOAS - AL,ESTRELA DE ALAGOAS,AL,10.415.458.518.981
51,-9.9,-36.67,FEIRA GRANDE - AL,FEIRA GRANDE,AL,12.627.955.958.295
52,-10.29,-36.3,FELIZ DESERTO - AL,FELIZ DESERTO,AL,25.815.504.228.461
53,-9.27,-35.71,FLEXEIRAS - AL,FLEXEIRAS,AL,76.177.389.697.317
54,-9.88,-36.82,GIRAU DO PONCIANO - AL,GIRAU DO PONCIANO,AL,18.112.917.349.246
55,-8.97,-35.93,IBATEGUARA - AL,IBATEGUARA,AL,97.377.448.556.216
56,-9.53,-36.63,IGACI - AL,IGACI,AL,15.307.071.634.132
57,-10.12,-36.66,IGREJA NOVA - AL,IGREJA NOVA,AL,13.431.986.223.109
58,-9.21,-37.75,INHAPI - AL,INHAPI,AL,98.409.712.052.117
59,-9.63,-37.2,JACARE DOS HOMENS - AL,JACARE DOS HOMENS,AL,31.871.453.806.513
60,-8.84,-35.46,JACUIPE - AL,JACUIPE,AL,46.227.545.295.775
61,-9.08,-35.25,JAPARATINGA - AL,JAPARATINGA,AL,41.056.498.746.954
62,-9.65,-37,JARAMATAIA - AL,JARAMATAIA,AL,31.131.712.235.824
63,-9.13,-35.74,JOAQUIM GOMES - AL,JOAQUIM GOMES,AL,12.829.707.092.753
64,-8.93,-35.57,JUNDIA - AL,JUNDIA,AL,28.772.123.199.258
65,-9.92,-36.47,JUNQUEIRO - AL,JUNQUEIRO,AL,14.252.460.175.899
66,-9.83,-36.73,LAGOA DA CANOA - AL,LAGOA DA CANOA,AL,11.575.875.451.368
67,-9.74,-36.5,LIMOEIRO DE ANADIA - AL,LIMOEIRO DE ANADIA,AL,12.200.873.573.162
68,-9.66,-35.73,MACEIO - AL,MACEIO,AL,723230
69,-9.53,-36.98,MAJOR ISIDORO - AL,MAJOR ISIDORO,AL,11.541.028.490.717
70,-9.44,-36.38,MAR VERMELHO - AL,MAR VERMELHO,AL,29.782.231.703.063
71,-9.01,-35.22,MARAGOGI - AL,MARAGOGI,AL,10.174.364.043.909
72,-9.23,-37.35,MARAVILHA - AL,MARAVILHA,AL,86.998.228.560.824
73,-9.71,-35.89,MARECHAL DEODORO - AL,MARECHAL DEODORO,AL,17.533.049.146.418
74,-9.57,-36.3,MARIBONDO - AL,MARIBONDO,AL,88.605.364.389.805
75,-9.11,-37.73,MATA GRANDE - AL,MATA GRANDE,AL,1.675.555.760.392
76,-9.15,-35.53,MATRIZ DE CAMARAGIBE - AL,MATRIZ DE CAMARAGIBE,AL,14.250.062.320.022
77,-9.38,-35.84,MESSIAS - AL,MESSIAS,AL,70.701.995.620.886
78,-9.3,-36.86,MINADOR DO NEGRAO - AL,MINADOR DO NEGRAO,AL,32.898.474.010.306
79,-9.6,-37.24,MONTEIROPOLIS - AL,MONTEIROPOLIS,AL,42.542.287.421.864
80,-9.3,-35.94,MURICI - AL,MURICI,AL,14.253.785.133.568
81,-8.91,-35.64,NOVO LINO - AL,NOVO LINO,AL,71.238.279.946.563
82,-9.53,-37.29,OLHO D'AGUA DAS FLORES - AL,OLHO D'AGUA DAS FLORES,AL,11.222.326.303.961
83,-9.5,-37.83,OLHO D'AGUA DO CASADO - AL,OLHO D'AGUA DO CASADO,AL,41.443.887.987.717
84,-10.05,-36.81,OLHO D'AGUA GRANDE - AL,OLHO D'AGUA GRANDE,AL,27.696.591.558.072
85,-9.51,-37.19,OLIVENCA - AL,OLIVENCA,AL,64.589.406.292.864
86,-9.16,-37.35,OURO BRANCO - AL,OURO BRANCO,AL,61.094.590.655.158
87,-9.67,-37.32,PALESTINA - AL,PALESTINA,AL,26.919.983.574.454
88,-9.4,-36.62,PALMEIRA DOS INDIOS - AL,PALMEIRA DOS INDIOS,AL,42.103.024.920.166
89,-9.74,-37.43,PAO DE ACUCAR - AL,PAO DE ACUCAR,AL,16.252.712.029.531
90,-9.25,-38,PARICONHA - AL,PARICONHA,AL,56.773.868.899.399
91,-9.46,-35.55,PARIPUEIRA - AL,PARIPUEIRA,AL,43.322.232.852.117
92,-9.23,-35.49,PASSO DE CAMARAGIBE - AL,PASSO DE CAMARAGIBE,AL,92.366.276.327.125
93,-9.36,-36.37,PAULO JACINTO - AL,PAULO JACINTO,AL,61.136.271.943.176
94,-10.29,-36.58,PENEDO - AL,PENEDO,AL,37.473.921.109.934
95,-10.4,-36.43,PIACABUCU - AL,PIACABUCU,AL,98.727.075.093.472
96,-9.59,-35.95,PILAR - AL,PILAR,AL,20.935.266.852.128
97,-9.47,-36.29,PINDOBA - AL,PINDOBA,AL,21.063.693.739.202
98,-9.62,-37.75,PIRANHAS - AL,PIRANHAS,AL,13.332.335.496.974
99,-9.31,-37.28,POCO DAS TRINCHEIRAS - AL,POCO DAS TRINCHEIRAS,AL,74.023.357.551.399
100,-9.04,-35.39,PORTO CALVO - AL,PORTO CALVO,AL,16.208.268.561.604
101,-9.15,-35.29,PORTO DE PEDRAS - AL,PORTO DE PEDRAS,AL,6.960.132.786.357
102,-10.18,-36.84,PORTO REAL DO COLEGIO - AL,PORTO REAL DO COLEGIO,AL,11.535.391.257.119
103,-9.31,-36.47,QUEBRANGULO - AL,QUEBRANGULO,AL,79.447.999.250.079
104,-9.47,-35.85,RIO LARGO - AL,RIO LARGO,AL,40.450.572.629.757
105,-9.83,-35.97,ROTEIRO - AL,ROTEIRO,AL,44.231.415.998.578
106,-9.6,-35.82,SANTA LUZIA DO NORTE - AL,SANTA LUZIA DO NORTE,AL,39.357.296.822.582
107,-9.37,-37.24,SANTANA DO IPANEMA - AL,SANTANA DO IPANEMA,AL,23.658.498.940.151
108,-9.16,-36.22,SANTANA DO MUNDAU - AL,SANTANA DO MUNDAU,AL,79.044.749.014.965
109,-10.12,-36.9,SAO BRAS - AL,SAO BRAS,AL,43.749.941.627.183
110,-9.01,-36.05,SAO JOSE DA LAJE - AL,SAO JOSE DA LAJE,AL,14.585.681.879.441
111,-9.55,-37.38,SAO JOSE DA TAPERA - AL,SAO JOSE DA TAPERA,AL,17.757.830.140.283
112,-9.31,-35.56,SAO LUIS DO QUITUNDE - AL,SAO LUIS DO QUITUNDE,AL,2.150.258.889.209
113,-9.78,-36.09,SAO MIGUEL DOS CAMPOS - AL,SAO MIGUEL DOS CAMPOS,AL,32.746.780.646.641
114,-9.26,-35.37,SAO MIGUEL DOS MILAGRES - AL,SAO MIGUEL DOS MILAGRES,AL,36.363.546.567.879
115,-9.93,-36.55,SAO SEBASTIAO - AL,SAO SEBASTIAO,AL,17.089.716.220.346
116,-9.56,-35.82,SATUBA - AL,SATUBA,AL,68.602.255.662.294
117,-9.35,-37.5,SENADOR RUI PALMEIRA - AL,SENADOR RUI PALMEIRA,AL,54.986.999.020.358
118,-9.53,-36.43,TANQUE D'ARCA - AL,TANQUE D'ARCA,AL,47.870.335.302.014
119,-9.64,-36.49,TAQUARANA - AL,TAQUARANA,AL,11.910.463.324.234
120,-9.9,-36.35,TEOTONIO VILELA - AL,TEOTONIO VILELA,AL,22.446.259.895.284
121,-9.97,-37,TRAIPU - AL,TRAIPU,AL,15.099.896.996.791
122,-9.16,-36.03,UNIAO DOS PALMARES - AL,UNIAO DOS PALMARES,AL,33.786.087.552.446
123,-9.37,-36.24,VICOSA - AL,VICOSA,AL,16.947.652.036.545
124,-3.22,-64.8,ALVARAES - AM,ALVARAES,AM,82.600.646.799.992
125,-3.36,-68.19,AMATURA - AM,AMATURA,AM,40.856.168.722.981
126,-3.58,-61.4,ANAMA - AM,ANAMA,AM,46.517.397.529.805
127,-3.77,-61.64,ANORI - AM,ANORI,AM,71.442.083.035.345
128,-7.19,-59.89,APUI - AM,APUI,AM,76.619.951.879.706
129,-4.37,-70.19,ATALAIA DO NORTE - AM,ATALAIA DO NORTE,AM,52.195.030.853.438
130,-3.58,-59.13,AUTAZES - AM,AUTAZES,AM,1.612.077.781.463
131,-0.97,-62.92,BARCELOS - AM,BARCELOS,AM,10.256.010.877.312
132,-2.79,-57.07,BARREIRINHA - AM,BARREIRINHA,AM,12.643.178.823.823
133,-4.38,-70.03,BENJAMIN CONSTANT - AM,BENJAMIN CONSTANT,AM,14.851.508.119.015
134,-3.89,-61.37,BERURI - AM,BERURI,AM,61.613.949.371.934
135,-2.97,-57.59,BOA VISTA DO RAMOS - AM,BOA VISTA DO RAMOS,AM,54.480.696.185.676
136,-8.75,-67.39,BOCA DO ACRE - AM,BOCA DO ACRE,AM,16.928.863.278.114
137,-4.38,-59.59,BORBA - AM,BORBA,AM,15.412.905.914.613
138,-3.32,-61.2,CAAPIRANGA - AM,CAAPIRANGA,AM,4.260.002.683.709
139,-6.53,-64.38,CANUTAMA - AM,CANUTAMA,AM,50.677.716.494.891
140,-4.88,-66.89,CARAUARI - AM,CARAUARI,AM,14.071.418.649.546
141,-3.76,-60.36,CAREIRO - AM,CAREIRO,AM,11.502.599.882.986
142,-3.22,-59.82,CAREIRO DA VARZEA - AM,CAREIRO DA VARZEA,AM,11.744.257.730.837
143,-4.08,-63.14,COARI - AM,COARI,AM,33.939.601.808.063
144,-3.83,-62.05,CODAJAS - AM,CODAJAS,AM,9.766.116.976.548
145,-6.66,-69.87,EIRUNEPE - AM,EIRUNEPE,AM,1.599.316.988.001
146,-7.43,-70.02,ENVIRA - AM,ENVIRA,AM,12.478.715.471.874
147,-2.51,-66.09,FONTE BOA - AM,FONTE BOA,AM,14.729.539.411.801
148,-7.54,-72.58,GUAJARA - AM,GUAJARA,AM,69.741.096.735.788
149,-7.5,-63.02,HUMAITA - AM,HUMAITA,AM,17.750.445.559.515
150,-7.05,-71.69,IPIXUNA - AM,IPIXUNA,AM,68.611.156.912.345
151,-3.28,-60.18,IRANDUBA - AM,IRANDUBA,AM,16.913.822.160.235
152,-3.14,-58.44,ITACOATIARA - AM,ITACOATIARA,AM,42.852.600.824.567
153,-6.42,-68.25,ITAMARATI - AM,ITAMARATI,AM,49.869.419.174.067
154,-2.74,-58.02,ITAPIRANGA - AM,ITAPIRANGA,AM,42.114.724.636.078
155,-1.82,-66.59,JAPURA - AM,JAPURA,AM,43.249.255.277.944
156,-3.48,-66.06,JURUA - AM,JURUA,AM,29.024.980.899.571
157,-2.74,-66.76,JUTAI - AM,JUTAI,AM,1.346.227.317.565
158,-7.25,-64.79,LABREA - AM,LABREA,AM,18.519.280.258.581
159,-3.3,-60.62,MANACAPURU - AM,MANACAPURU,AM,44.470.149.125.358
160,-3.42,-60.45,MANAQUIRI - AM,MANAQUIRI,AM,10.750.195.770.912
161,-3.1,-60.02,MANAUS - AM,MANAUS,AM,1157357
162,-5.8,-61.3,MANICORE - AM,MANICORE,AM,25.322.487.345.991
163,-1.85,-65.58,MARAA - AM,MARAA,AM,86.837.315.732.308
164,-3.38,-57.71,MAUES - AM,MAUES,AM,23.520.178.279.589
165,-2.18,-56.71,NHAMUNDA - AM,NHAMUNDA,AM,97.000.427.767.978
166,-3.88,-59.09,NOVA OLINDA DO NORTE - AM,NOVA OLINDA DO NORTE,AM,12.465.969.981.151
167,-2.62,-60.94,NOVO AIRAO - AM,NOVO AIRAO,AM,90.626.508.547.957
168,-5.12,-60.38,NOVO ARIPUANA - AM,NOVO ARIPUANA,AM,95.633.857.026.914
169,-2.62,-56.73,PARINTINS - AM,PARINTINS,AM,46.335.148.740.893
170,-7.71,-66.97,PAUINI - AM,PAUINI,AM,12.653.450.572.281
171,-2.03,-60.02,PRESIDENTE FIGUEIREDO - AM,PRESIDENTE FIGUEIREDO,AM,66.940.111.373.961
172,-2.69,-59.7,RIO PRETO DA EVA - AM,RIO PRETO DA EVA,AM,62.170.862.040.669
173,-0.41,-65.01,SANTA ISABEL DO RIO NEGRO - AM,SANTA ISABEL DO RIO NEGRO,AM,77.986.280.431.975
174,-3.1,-67.94,SANTO ANTONIO DO ICA - AM,SANTO ANTONIO DO ICA,AM,15.397.573.888.593
175,-0.13,-67.08,SAO GABRIEL DA CACHOEIRA - AM,SAO GABRIEL DA CACHOEIRA,AM,18.585.067.760.734
176,-3.37,-68.87,SAO PAULO DE OLIVENCA - AM,SAO PAULO DE OLIVENCA,AM,12.521.955.889.353
177,-2.57,-57.87,SAO SEBASTIAO DO UATUMA - AM,SAO SEBASTIAO DO UATUMA,AM,39.142.050.905.949
178,-2.83,-58.2,SILVES - AM,SILVES,AM,40.719.003.462.241
179,-4.25,-69.93,TABATINGA - AM,TABATINGA,AM,22.111.399.138.308
180,-5.62,-63.18,TAPAUA - AM,TAPAUA,AM,1.127.939.763.023
181,-3.35,-64.71,TEFE - AM,TEFE,AM,39.230.715.667.514
182,-2.87,-67.8,TONANTINS - AM,TONANTINS,AM,93.289.328.388.251
183,-2.99,-65.1,UARINI - AM,UARINI,AM,68.627.053.493.016
184,-2.53,-57.76,URUCARA - AM,URUCARA,AM,10.967.167.017.677
185,-3.13,-58.15,URUCURITUBA - AM,URUCURITUBA,AM,10.778.873.847.277
186,02.05,-50.79,AMAPA - AP,AMAPA,AP,39.088.087.608.714
187,2.49,-50.94,CALCOENE - AP,CALCOENE,AP,34.930.230.051.096
188,0.98,-50.8,CUTIAS - AP,CUTIAS,AP,12.328.238.741.673
189,0.85,-51.18,FERREIRA GOMES - AP,FERREIRA GOMES,AP,15.759.982.171.407
190,0.71,-50.8,ITAUBAL - AP,ITAUBAL,AP,1.310.070.395.198
191,-1.12,-52,LARANJAL DO JARI - AP,LARANJAL DO JARI,AP,14.557.975.742.576
192,0.03,-51.06,MACAPA - AP,MACAPA,AP,15.381.011.447.224
193,-0.11,-51.28,MAZAGAO - AP,MAZAGAO,AP,6.903.128.181.355
194,3.84,-51.83,OIAPOQUE - AP,OIAPOQUE,AP,60.068.382.537.187
195,0.77,-51.94,PEDRA BRANCA DO AMAPARI - AP,PEDRA BRANCA DO AMAPARI,AP,21.025.701.425.941
196,0.71,-51.41,PORTO GRANDE - AP,PORTO GRANDE,AP,48.810.958.934.466
197,1.74,-50.79,PRACUUBA - AP,PRACUUBA,AP,10.392.820.785.677
198,-0.05,-51.18,SANTANA - AP,SANTANA,AP,43.436.799.601.791
199,0.89,-52,SERRA DO NAVIO - AP,SERRA DO NAVIO,AP,18.004.301.787.191
200,1.5,-50.91,TARTARUGALZINHO - AP,TARTARUGALZINHO,AP,28.848.809.189.025
201,-0.8,-52.45,VITORIA DO JARI - AP,VITORIA DO JARI,AP,40.670.597.195.071
202,-13.25,-41.66,ABAIRA - BA,ABAIRA,BA,86.534.458.970.124
203,-8.72,-39.11,ABARE - BA,ABARE,BA,81.865.552.710.281
204,-11.66,-38.01,ACAJUTIBA - BA,ACAJUTIBA,BA,83.632.771.772.107
205,-10.53,-38.1,ADUSTINA - BA,ADUSTINA,BA,81.024.581.036.289
206,-11.86,-38.76,AGUA FRIA - BA,AGUA FRIA,BA,90.155.248.634.028
207,-14.12,-39.88,AIQUARA - BA,AIQUARA,BA,41.079.729.289.723
208,-12.13,-38.41,ALAGOINHAS - BA,ALAGOINHAS,BA,74.011.317.213.751
209,-17.51,-39.19,ALCOBACA - BA,ALCOBACA,BA,1.003.510.801.641
210,-14.7,-39.63,ALMADINA - BA,ALMADINA,BA,57.487.721.501.454
211,-13.03,-39.6,AMARGOSA - BA,AMARGOSA,BA,21.225.998.036.788
212,-12.39,-38.75,AMELIA RODRIGUES - BA,AMELIA RODRIGUES,BA,15.063.340.653.329
213,-11.45,-41.43,AMERICA DOURADA - BA,AMERICA DOURADA,BA,965.576.075.286
214,-14.61,-41.13,ANAGE - BA,ANAGE,BA,29.362.864.613.877
215,-12.8,-41.33,ANDARAI - BA,ANDARAI,BA,10.377.786.528.887
216,-10.34,-39.83,ANDORINHA - BA,ANDORINHA,BA,11.851.761.116.264
217,-12,-44.69,ANGICAL - BA,ANGICAL,BA,88.739.861.137.232
218,-12.15,-39.24,ANGUERA - BA,ANGUERA,BA,55.615.905.639.708
219,-10.4,-38.33,ANTAS - BA,ANTAS,BA,69.625.313.717.657
220,-12.43,-39.12,ANTONIO CARDOSO - BA,ANTONIO CARDOSO,BA,68.664.971.773.314
221,-10.57,-40.27,ANTONIO GONCALVES - BA,ANTONIO GONCALVES,BA,95.325.738.480.246
222,-11.66,-38.08,APORA - BA,APORA,BA,104.308.044.748
223,-13.85,-39.74,APUAREMA - BA,APUAREMA,BA,61.723.431.881.375
224,-12.22,-38.2,ARACAS - BA,ARACAS,BA,75.207.070.593.688
225,-14.42,-41.46,ARACATU - BA,ARACATU,BA,11.675.236.105.095
226,-11.33,-38.96,ARACI - BA,ARACI,BA,33.439.399.545.642
227,-12.08,-38.49,ARAMARI - BA,ARAMARI,BA,60.924.813.205.527
228,-15.26,-39.41,ARATACA - BA,ARATACA,BA,79.261.922.070.507
229,-13.07,-39,ARATUIPE - BA,ARATUIPE,BA,54.451.547.535.045
230,-14.31,-39.32,AURELINO LEAL - BA,AURELINO LEAL,BA,10.010.911.139.048
231,-12.3,-44.53,BAIANOPOLIS - BA,BAIANOPOLIS,BA,8.586.804.848.356
232,-11.96,-40.16,BAIXA GRANDE - BA,BAIXA GRANDE,BA,12.804.481.745.192
233,-10.57,-38.61,BANZAE - BA,BANZAE,BA,67.735.456.840.143
234,-11.08,-43.14,BARRA - BA,BARRA,BA,25.164.818.908.315
235,-13.62,-41.32,BARRA DA ESTIVA - BA,BARRA DA ESTIVA,BA,13.985.219.748.217
236,-14.88,-40.57,BARRA DO CHOCA - BA,BARRA DO CHOCA,BA,27.041.443.648.105
237,-11.81,-42.05,BARRA DO MENDES - BA,BARRA DO MENDES,BA,88.784.839.471.099
238,-14.21,-39.6,BARRA DO ROCHA - BA,BARRA DO ROCHA,BA,55.092.360.346.919
239,-12.15,-44.99,BARREIRAS - BA,BARREIRAS,BA,6.848.993.698.253
240,-11.76,-41.91,BARRO ALTO - BA,BARRO ALTO,BA,79.292.613.417.789
241,-14.81,-39.47,BARRO PRETO - BA,BARRO PRETO,BA,43.077.390.456.702
242,-15.86,-38.88,BELMONTE - BA,BELMONTE,BA,12.324.820.116.268
243,-15.03,-41.26,BELO CAMPO - BA,BELO CAMPO,BA,96.658.667.602.063
244,-11.61,-38.8,BIRITINGA - BA,BIRITINGA,BA,95.581.335.440.144
245,-14.36,-40.2,BOA NOVA - BA,BOA NOVA,BA,10.630.129.499.887
246,-12.66,-40.6,BOA VISTA DO TUPIM - BA,BOA VISTA DO TUPIM,BA,11.253.181.244.511
247,-13.25,-43.41,BOM JESUS DA LAPA - BA,BOM JESUS DA LAPA,BA,33.383.979.694.728
248,-14.37,-40.5,BOM JESUS DA SERRA - BA,BOM JESUS DA SERRA,BA,75.873.963.001.649
249,-12.7,-41.82,BONINAL - BA,BONINAL,BA,85.910.865.299.182
250,-11.96,-41.26,BONITO - BA,BONITO,BA,97.719.363.402.942
251,-12.82,-42.73,BOQUIRA - BA,BOQUIRA,BA,12.732.718.736.038
252,-13.38,-42.52,BOTUPORA - BA,BOTUPORA,BA,817.855.768.336
253,-13.1,-39.79,BREJOES - BA,BREJOES,BA,10.171.296.580.398
254,-12.48,-43.96,BREJOLANDIA - BA,BREJOLANDIA,BA,66.415.649.639.962
255,-11.99,-42.62,BROTAS DE MACAUBAS - BA,BROTAS DE MACAUBAS,BA,98.001.143.058.018
256,-14.2,-41.66,BRUMADO - BA,BRUMADO,BA,38.667.268.115.999
257,-14.95,-39.3,BUERAREMA - BA,BUERAREMA,BA,12.281.682.587.298
258,-10.7,-43.63,BURITIRAMA - BA,BURITIRAMA,BA,10.192.627.516.346
259,-14.97,-40.4,CAATIBA - BA,CAATIBA,BA,97.073.774.551.068
260,-12.53,-39.19,CABACEIRAS DO PARAGUACU - BA,CABACEIRAS DO PARAGUACU,BA,93.308.501.428.392
261,-12.61,-38.95,CACHOEIRA - BA,CACHOEIRA,BA,1.840.708.891.381
262,-14.5,-42.22,CACULE - BA,CACULE,BA,13.951.142.057.646
263,-11.09,-40.43,CAEM - BA,CAEM,BA,11.931.995.762.024
264,-14.33,-40.91,CAETANOS - BA,CAETANOS,BA,78.263.963.204.753
265,-14.06,-42.47,CAETITE - BA,CAETITE,BA,27.426.158.370.254
266,-11.69,-41.46,CAFARNAUM - BA,CAFARNAUM,BA,90.626.011.885.261
267,-13.48,-39.04,CAIRU - BA,CAIRU,BA,57.258.184.546.645
268,-11.02,-40.3,CALDEIRAO GRANDE - BA,CALDEIRAO GRANDE,BA,10.717.897.260.117
269,-15.41,-39.49,CAMACAN - BA,CAMACAN,BA,21.735.559.562.202
270,-12.69,-38.32,CAMACARI - BA,CAMACARI,BA,83.746.120.079.254
271,-13.94,-39.1,CAMAMU - BA,CAMAMU,BA,20.919.865.229.343
272,-9.51,-43.01,CAMPO ALEGRE DE LOURDES - BA,CAMPO ALEGRE DE LOURDES,BA,15.798.554.638.488
273,-10.5,-40.32,CAMPO FORMOSO - BA,CAMPO FORMOSO,BA,38.883.075.019.361
274,-13.07,-44.2,CANAPOLIS - BA,CANAPOLIS,BA,60.381.485.418.275
275,-11.68,-41.76,CANARANA - BA,CANARANA,BA,1.300.521.367.059
276,-15.67,-38.94,CANAVIEIRAS - BA,CANAVIEIRAS,BA,23.374.897.479.198
277,-11.8,-39.11,CANDEAL - BA,CANDEAL,BA,6.852.498.196.762
278,-12.66,-38.55,CANDEIAS - BA,CANDEIAS,BA,48.617.106.165.645
279,-14.41,-42.86,CANDIBA - BA,CANDIBA,BA,87.539.525.923.638
280,-15.5,-41.23,CANDIDO SALES - BA,CANDIDO SALES,BA,15.697.728.844.208
281,-10.67,-39.49,CANSANCAO - BA,CANSANCAO,BA,211.719.900.013
282,-9.9,-39.13,CANUDOS - BA,CANUDOS,BA,11.628.035.598.083
283,-11.66,-39.83,CAPELA DO ALTO ALEGRE - BA,CAPELA DO ALTO ALEGRE,BA,75.474.762.364.328
284,-11.38,-40.01,CAPIM GROSSO - BA,CAPIM GROSSO,BA,17.332.408.065.339
285,-14.6,-41.33,CARAIBAS - BA,CARAIBAS,BA,10.154.454.715.821
286,-17.73,-39.26,CARAVELAS - BA,CARAVELAS,BA,11.747.390.018.292
287,-11.94,-37.94,CARDEAL DA SILVA - BA,CARDEAL DA SILVA,BA,45.499.166.107.831
288,-14.3,-43.76,CARINHANHA - BA,CARINHANHA,BA,17.744.223.590.221
289,-9.16,-40.97,CASA NOVA - BA,CASA NOVA,BA,30.245.093.227.434
290,-12.76,-39.42,CASTRO ALVES - BA,CASTRO ALVES,BA,17.011.344.492.731
291,-12.31,-44.86,CATOLANDIA - BA,CATOLANDIA,BA,19.954.737.076.252
292,-12.35,-38.37,CATU - BA,CATU,BA,29.921.156.036.361
293,-13.32,-42.29,CATURAMA - BA,CATURAMA,BA,64.571.912.634.929
294,-11.13,-42.11,CENTRAL - BA,CENTRAL,BA,91.393.366.565.177
295,-8.98,-39.09,CHORROCHO - BA,CHORROCHO,BA,61.094.884.539.564
296,-10.6,-38.38,CICERO DANTAS - BA,CICERO DANTAS,BA,17.891.080.139.978
297,-11.1,-38.51,CIPO - BA,CIPO,BA,80.394.602.852.419
298,-14.64,-39.55,COARACI - BA,COARACI,BA,17.550.311.188.146
299,-14.18,-44.53,COCOS - BA,COCOS,BA,10.919.868.422.021
300,-12.5,-38.99,CONCEICAO DA FEIRA - BA,CONCEICAO DA FEIRA,BA,10.659.386.253.962
301,-12.8,-39.16,CONCEICAO DO ALMEIDA - BA,CONCEICAO DO ALMEIDA,BA,12.849.006.194.206
302,-11.56,-39.28,CONCEICAO DO COITE - BA,CONCEICAO DO COITE,BA,35.259.005.372.277
303,-12.42,-38.72,CONCEICAO DO JACUIPE - BA,CONCEICAO DO JACUIPE,BA,15.155.047.692.958
304,-11.81,-37.61,CONDE - BA,CONDE,BA,11.839.315.002.165
305,-14.89,-41.96,CONDEUBA - BA,CONDEUBA,BA,11.366.904.306.269
306,-13.76,-41.04,CONTENDAS DO SINCORA - BA,CONTENDAS DO SINCORA,BA,33.407.380.422.291
307,-12.23,-38.75,CORACAO DE MARIA - BA,CORACAO DE MARIA,BA,15.640.210.328.725
308,-15.03,-41.93,CORDEIROS - BA,CORDEIROS,BA,72.960.588.881.978
309,-13.82,-44.45,CORIBE - BA,CORIBE,BA,10.915.920.680.975
310,-10.28,-37.92,CORONEL JOAO SA - BA,CORONEL JOAO SA,BA,13.153.817.684.368
311,-13.34,-44.63,CORRENTINA - BA,CORRENTINA,BA,18.211.649.478.634
312,-12.02,-44.25,COTEGIPE - BA,COTEGIPE,BA,80.845.771.501.757
313,-13.35,-39.81,CRAVOLANDIA - BA,CRAVOLANDIA,BA,30.090.439.926.519
314,-11.51,-38.15,CRISOPOLIS - BA,CRISOPOLIS,BA,1.082.202.948.463
315,-12.23,-44.42,CRISTOPOLIS - BA,CRISTOPOLIS,BA,8.541.879.443.991
316,-12.67,-39.1,CRUZ DAS ALMAS - BA,CRUZ DAS ALMAS,BA,32.023.655.760.869
317,-8.99,-39.9,CURACA - BA,CURACA,BA,17.436.164.243.149
318,-14.43,-39.9,DARIO MEIRA - BA,DARIO MEIRA,BA,10.408.813.612.118
319,-12.61,-38.29,DIAS D'AVILA - BA,DIAS D'AVILA,BA,22.986.809.846.386
320,-13.76,-41.77,DOM BASILIO - BA,DOM BASILIO,BA,68.802.530.654.185
321,-12.9,-39.19,DOM MACEDO COSTA - BA,DOM MACEDO COSTA,BA,24.613.881.997.109
322,-12.94,-39.52,ELISIO MEDRADO - BA,ELISIO MEDRADO,BA,48.431.370.800.774
323,-15.53,-40.9,ENCRUZILHADA - BA,ENCRUZILHADA,BA,20.930.667.521.342
324,-11.94,-38.08,ENTRE RIOS - BA,ENTRE RIOS,BA,22.066.268.345.327
325,-13.41,-42.14,ERICO CARDOSO - BA,ERICO CARDOSO,BA,64.690.252.887.309
326,-11.79,-37.94,ESPLANADA - BA,ESPLANADA,BA,16.709.100.158.166
327,-10.5,-39.01,EUCLIDES DA CUNHA - BA,EUCLIDES DA CUNHA,BA,3.453.204.959.682
328,-16.37,-39.58,EUNAPOLIS - BA,EUNAPOLIS,BA,52.807.708.323.281
329,-10.6,-38.21,FATIMA - BA,FATIMA,BA,12.125.688.593.366
330,-14.2,-44.28,FEIRA DA MATA - BA,FEIRA DA MATA,BA,40.027.216.253.611
331,-12.26,-38.96,FEIRA DE SANTANA - BA,FEIRA DE SANTANA,BA,450487
332,-10.74,-40.13,FILADELFIA - BA,FILADELFIA,BA,1.108.408.809.792
333,-14.98,-39.92,FIRMINO ALVES - BA,FIRMINO ALVES,BA,39.924.226.863.295
334,-14.86,-39.66,FLORESTA AZUL - BA,FLORESTA AZUL,BA,88.516.503.493.428
335,-11.04,-45.19,FORMOSA DO RIO PRETO - BA,FORMOSA DO RIO PRETO,BA,10.430.939.211.284
336,-13.74,-39.48,GANDU - BA,GANDU,BA,19.480.147.540.585
337,-11.47,-39.78,GAVIAO - BA,GAVIAO,BA,32.270.036.896.376
338,-11.42,-42.5,GENTIO DO OURO - BA,GENTIO DO OURO,BA,61.096.153.451.684
339,-9.33,-38.25,GLORIA - BA,GLORIA,BA,86.852.990.238.637
340,-14.32,-39.46,GONGOGI - BA,GONGOGI,BA,76.437.773.448.109
341,-12.6,-39.04,GOVERNADOR MANGABEIRA - BA,GOVERNADOR MANGABEIRA,BA,11.017.496.966.238
342,-14.54,-41.94,GUAJERU - BA,GUAJERU,BA,78.819.754.029.078
343,-14.22,-42.78,GUANAMBI - BA,GUANAMBI,BA,42.482.213.104.939
344,-16.58,-39.78,GUARATINGA - BA,GUARATINGA,BA,1.605.537.650.833
345,-10.68,-38.28,HELIOPOLIS - BA,HELIOPOLIS,BA,77.970.195.550.078
346,-12.76,-40.21,IACU - BA,IACU,BA,18.634.790.648.562
347,-14.25,-42.25,IBIASSUCE - BA,IBIASSUCE,BA,74.337.621.161.969
348,-14.86,-39.58,IBICARAI - BA,IBICARAI,BA,20.459.528.319.672
349,-13.41,-41.28,IBICOARA - BA,IBICOARA,BA,58.178.415.387.895
350,-14.84,-39.98,IBICUI - BA,IBICUI,BA,92.787.434.745.617
351,-11.64,-42.01,IBIPEBA - BA,IBIPEBA,BA,10.003.358.169.135
352,-12.88,-42.48,IBIPITANGA - BA,IBIPITANGA,BA,86.240.043.819.465
353,-12.65,-40.93,IBIQUERA - BA,IBIQUERA,BA,30.235.809.973.404
354,-14.16,-39.37,IBIRAPITANGA - BA,IBIRAPITANGA,BA,15.610.710.902.487
355,-17.68,-40.1,IBIRAPUA - BA,IBIRAPUA,BA,51.520.013.692.966
356,-14.06,-39.64,IBIRATAIA - BA,IBIRATAIA,BA,15.568.201.261.538
357,-12.65,-42.21,IBITIARA - BA,IBITIARA,BA,95.180.397.957.385
358,-11.54,-41.97,IBITITA - BA,IBITITA,BA,10.560.365.034.527
359,-12.18,-43.22,IBOTIRAMA - BA,IBOTIRAMA,BA,14.596.287.177.433
360,-11.74,-39.19,ICHU - BA,ICHU,BA,60.135.136.339.757
361,-13.77,-42.71,IGAPORA - BA,IGAPORA,BA,10.036.204.446.577
362,-13.82,-39.14,IGRAPIUNA - BA,IGRAPIUNA,BA,86.514.319.197.612
363,-14.75,-40.08,IGUAI - BA,IGUAI,BA,14.610.064.996.426
364,-14.78,-39.04,ILHEUS - BA,ILHEUS,BA,1.563.450.268.291
365,-11.78,-38.35,INHAMBUPE - BA,INHAMBUPE,BA,16.195.157.471.499
366,-12.3,-39.3,IPECAETA - BA,IPECAETA,BA,10.616.214.090.408
367,-14.13,-39.73,IPIAU - BA,IPIAU,BA,26.110.271.037.502
368,-12.15,-39.73,IPIRA - BA,IPIRA,BA,42.312.716.149.167
369,-11.82,-42.61,IPUPIARA - BA,IPUPIARA,BA,55.293.244.640.106
370,-13.25,-40.08,IRAJUBA - BA,IRAJUBA,BA,44.666.836.491.384
371,-13.28,-40.95,IRAMAIA - BA,IRAMAIA,BA,1.123.807.453.194
372,-12.24,-41.61,IRAQUARA - BA,IRAQUARA,BA,122.687.684.085
373,-12.05,-38.76,IRARA - BA,IRARA,BA,14.896.940.055.493
374,-11.3,-41.85,IRECE - BA,IRECE,BA,34.349.558.258.914
375,-16.57,-39.55,ITABELA - BA,ITABELA,BA,16.440.418.057.921
376,-12.52,-40.3,ITABERABA - BA,ITABERABA,BA,3.395.628.223.821
377,-14.78,-39.28,ITABUNA - BA,ITABUNA,BA,11.298.941.746.599
378,-14.27,-38.99,ITACARE - BA,ITACARE,BA,99.048.846.757.546
379,-12.98,-40.97,ITAETE - BA,ITAETE,BA,91.284.840.532.192
380,-14.16,-40,ITAGI - BA,ITAGI,BA,97.100.052.281.444
381,-14.28,-39.84,ITAGIBA - BA,ITAGIBA,BA,96.712.639.986.538
382,-16.08,-39.61,ITAGIMIRIM - BA,ITAGIMIRIM,BA,48.331.890.151.936
383,-11.01,-42.39,ITAGUACU DA BAHIA - BA,ITAGUACU DA BAHIA,BA,9.149.106.399.295
384,-15.14,-39.72,ITAJU DO COLONIA - BA,ITAJU DO COLONIA,BA,55.417.762.768.387
385,-14.67,-39.37,ITAJUIPE - BA,ITAJUIPE,BA,16.401.088.678.802
386,-17.03,-39.53,ITAMARAJU - BA,ITAMARAJU,BA,42.616.306.198.847
387,-13.77,-39.68,ITAMARI - BA,ITAMARI,BA,55.301.377.967.595
388,-15.24,-40.62,ITAMBE - BA,ITAMBE,BA,18.836.128.531.832
389,-12.26,-38.04,ITANAGRA - BA,ITANAGRA,BA,28.838.358.072.628
390,-17.16,-40.33,ITANHEM - BA,ITANHEM,BA,14.103.503.974.041
391,-12.88,-38.67,ITAPARICA - BA,ITAPARICA,BA,10.886.790.006.938
392,-14.89,-39.42,ITAPE - BA,ITAPE,BA,93.829.356.761.413
393,-15.95,-39.53,ITAPEBI - BA,ITAPEBI,BA,73.654.584.951.572
394,-15.24,-40.24,ITAPETINGA - BA,ITAPETINGA,BA,36.530.771.449.504
395,-11.31,-38.23,ITAPICURU - BA,ITAPICURU,BA,16.494.907.238.972
396,-14.42,-39.56,ITAPITANGA - BA,ITAPITANGA,BA,6.610.102.600.599
397,-13.45,-39.94,ITAQUARA - BA,ITAQUARA,BA,47.982.433.005.313
398,-15.66,-40.06,ITARANTIM - BA,ITARANTIM,BA,98.326.298.784.538
399,-12.71,-39.69,ITATIM - BA,ITATIM,BA,72.823.656.235.385
400,-13.53,-40.15,ITIRUCU - BA,ITIRUCU,BA,8.345.100.572.506
401,-10.69,-39.85,ITIUBA - BA,ITIUBA,BA,21.745.211.431.814
402,-15.11,-40.07,ITORORO - BA,ITORORO,BA,12.476.066.820.937
403,-13.81,-41.29,ITUACU - BA,ITUACU,BA,12.998.090.258.563
404,-13.73,-39.14,ITUBERA - BA,ITUBERA,BA,13.444.907.108.915
405,-14.41,-43.55,IUIU - BA,IUIU,BA,7.856.913.206.892
406,-13.61,-44.43,JABORANDI - BA,JABORANDI,BA,64.873.032.395.385
407,-14.85,-42.43,JACARACI - BA,JACARACI,BA,90.064.319.425.086
408,-11.18,-40.51,JACOBINA - BA,JACOBINA,BA,55.589.730.530.018
409,-13.53,-39.97,JAGUAQUARA - BA,JAGUAQUARA,BA,25.971.877.184.694
410,-10.26,-40.19,JAGUARARI - BA,JAGUARARI,BA,23.794.481.443.513
411,-13.11,-38.89,JAGUARIPE - BA,JAGUARIPE,BA,88.467.528.817.258
412,-11.56,-37.78,JANDAIRA - BA,JANDAIRA,BA,61.135.452.231.165
413,-13.85,-40.08,JEQUIE - BA,JEQUIE,BA,10.551.904.027.902
414,-10.06,-38.35,JEREMOABO - BA,JEREMOABO,BA,21.479.862.010.899
415,-13.25,-39.57,JIQUIRICA - BA,JIQUIRICA,BA,90.327.363.858.521
416,-14.01,-39.88,JITAUNA - BA,JITAUNA,BA,1.044.015.494.546
417,-11.35,-41.66,JOAO DOURADO - BA,JOAO DOURADO,BA,11.746.006.563.752
418,-9.41,-40.5,JUAZEIRO - BA,JUAZEIRO,BA,10.923.621.767.349
419,-16.84,-40.15,JUCURUCU - BA,JUCURUCU,BA,78.973.465.270.414
420,-11.04,-41.96,JUSSARA - BA,JUSSARA,BA,84.408.320.795.037
421,-15.19,-39.49,JUSSARI - BA,JUSSARI,BA,56.462.386.342.336
422,-13.51,-41.59,JUSSIAPE - BA,JUSSIAPE,BA,72.520.921.965.109
423,-13.65,-40.21,LAFAIETE COUTINHO - BA,LAFAIETE COUTINHO,BA,32.493.957.578.902
424,-14.03,-42.14,LAGOA REAL - BA,LAGOA REAL,BA,82.326.876.893.864
425,-13.18,-39.42,LAJE - BA,LAJE,BA,1.269.557.448.745
426,-17.61,-40.34,LAJEDAO - BA,LAJEDAO,BA,23.195.792.835.217
427,-12.35,-40.9,LAJEDINHO - BA,LAJEDINHO,BA,30.452.314.908.886
428,-13.47,-40.22,LAJEDO DO TABOCAL - BA,LAJEDO DO TABOCAL,BA,57.800.049.996.878
429,-11.78,-38.9,LAMARAO - BA,LAMARAO,BA,66.900.211.924.427
430,-11.38,-41.83,LAPAO - BA,LAPAO,BA,13.455.878.146.143
431,-12.89,-38.32,LAURO DE FREITAS - BA,LAURO DE FREITAS,BA,61.904.729.117.747
432,-12.56,-41.39,LENCOIS - BA,LENCOIS,BA,60.346.667.634.639
433,-14.68,-42.5,LICINIO DE ALMEIDA - BA,LICINIO DE ALMEIDA,BA,87.179.112.472.377
434,-13.64,-41.84,LIVRAMENTO DO BRUMADO - BA,LIVRAMENTO DO BRUMADO,BA,21.195.827.820.203
435,-12.13,-40.36,MACAJUBA - BA,MACAJUBA,BA,71.251.543.384.565
436,-15.56,-40.42,MACARANI - BA,MACARANI,BA,11.359.666.080.219
437,-13.01,-42.69,MACAUBAS - BA,MACAUBAS,BA,24.683.867.562.897
438,-9.16,-39.05,MACURURE - BA,MACURURE,BA,46.830.343.169.106
439,-12.74,-38.62,MADRE DE DEUS - BA,MADRE DE DEUS,BA,6.905.645.974.911
440,-14.66,-41.49,MAETINGA - BA,MAETINGA,BA,75.506.394.490.449
441,-15.62,-40.26,MAIQUINIQUE - BA,MAIQUINIQUE,BA,4.572.601.367.746
442,-11.71,-40.14,MAIRI - BA,MAIRI,BA,115.853.982.767
443,-14.33,-43.77,MALHADA - BA,MALHADA,BA,9.044.740.877.596
444,-14.38,-41.87,MALHADA DE PEDRAS - BA,MALHADA DE PEDRAS,BA,49.293.404.364.696
445,-14.14,-40.24,MANOEL VITORINO - BA,MANOEL VITORINO,BA,10.656.123.558.442
446,-10.71,-44.03,MANSIDAO - BA,MANSIDAO,BA,67.459.496.527.149
447,-13.44,-40.43,MARACAS - BA,MARACAS,BA,19.332.638.913.062
448,-12.77,-38.91,MARAGOGIPE - BA,MARAGOGIPE,BA,22.794.700.637.613
449,-14.1,-39.01,MARAU - BA,MARAU,BA,11.824.668.160.378
450,-13,-40.53,MARCIONILIO SOUZA - BA,MARCIONILIO SOUZA,BA,93.592.598.012.883
451,-15.56,-39.3,MASCOTE - BA,MASCOTE,BA,10.450.518.225.644
452,-12.53,-38.29,MATA DE SAO JOAO - BA,MATA DE SAO JOAO,BA,20.550.236.676.267
453,-13.9,-42.84,MATINA - BA,MATINA,BA,60.530.883.182.061
454,-17.37,-40.22,MEDEIROS NETO - BA,MEDEIROS NETO,BA,156.315.954.862
455,-11.42,-40.59,MIGUEL CALMON - BA,MIGUEL CALMON,BA,21.507.779.880.116
456,-12.87,-39.85,MILAGRES - BA,MILAGRES,BA,78.708.386.633.836
457,-10.95,-40.57,MIRANGABA - BA,MIRANGABA,BA,1.142.444.504.848
458,-14.24,-40.77,MIRANTE - BA,MIRANTE,BA,67.364.296.593.236
459,-10.43,-39.33,MONTE SANTO - BA,MONTE SANTO,BA,35.742.642.870.064
460,-11.55,-43.28,MORPARA - BA,MORPARA,BA,58.990.872.484.824
461,-11.55,-41.15,MORRO DO CHAPEU - BA,MORRO DO CHAPEU,BA,20.526.530.327.089
462,-15.02,-42.36,MORTUGABA - BA,MORTUGABA,BA,83.151.276.718.492
463,-13,-41.37,MUCUGE - BA,MUCUGE,BA,82.048.704.814.052
464,-18.08,-39.55,MUCURI - BA,MUCURI,BA,15.816.991.541.527
465,-11.96,-41.63,MULUNGU DO MORRO - BA,MULUNGU DO MORRO,BA,92.049.705.803.128
466,-11.85,-40.47,MUNDO NOVO - BA,MUNDO NOVO,BA,14.965.602.342.002
467,-13,-39.11,MUNIZ FERREIRA - BA,MUNIZ FERREIRA,BA,42.166.531.104.305
468,-12.06,-43.54,MUQUEM DE SAO FRANCISCO - BA,MUQUEM DE SAO FRANCISCO,BA,61.861.682.274.838
469,-12.62,-38.99,MURITIBA - BA,MURITIBA,BA,18.476.125.815.975
470,-13.22,-39.5,MUTUIPE - BA,MUTUIPE,BA,13.648.073.113.479
471,-13.03,-39.01,NAZARE - BA,NAZARE,BA,16.503.736.730.655
472,-13.59,-39.1,NILO PECANHA - BA,NILO PECANHA,BA,10.589.888.626.693
473,-10.82,-39.42,NORDESTINA - BA,NORDESTINA,BA,63.078.611.389.532
474,-14.79,-40.14,NOVA CANAA - BA,NOVA CANAA,BA,89.999.074.936.268
475,-11.6,-39.63,NOVA FATIMA - BA,NOVA FATIMA,BA,47.434.932.731.875
476,-13.81,-39.62,NOVA IBIA - BA,NOVA IBIA,BA,80.014.992.167.878
477,-13.02,-40.06,NOVA ITARANA - BA,NOVA ITARANA,BA,43.275.843.015.019
478,-12.81,-41.07,NOVA REDENCAO - BA,NOVA REDENCAO,BA,85.197.771.305.859
479,-11.23,-38.48,NOVA SOURE - BA,NOVA SOURE,BA,15.305.025.062.473
480,-17.89,-39.37,NOVA VICOSA - BA,NOVA VICOSA,BA,18.430.136.174.534
481,-12.8,-42.16,NOVO HORIZONTE - BA,NOVO HORIZONTE,BA,73.259.394.444.357
482,-10.31,-38.4,NOVO TRIUNFO - BA,NOVO TRIUNFO,BA,81.340.894.547.787
483,-11.36,-38.33,OLINDINA - BA,OLINDINA,BA,14.235.777.141.867
484,-12.31,-42.89,OLIVEIRA DOS BREJINHOS - BA,OLIVEIRA DOS BREJINHOS,BA,14.557.997.770.819
485,-12.01,-38.61,OURICANGAS - BA,OURICANGAS,BA,46.519.320.593.774
486,-10.97,-41.08,OUROLANDIA - BA,OUROLANDIA,BA,86.268.563.374.255
487,-14.26,-43.16,PALMAS DE MONTE ALTO - BA,PALMAS DE MONTE ALTO,BA,12.701.933.091.144
488,-12.52,-41.55,PALMEIRAS - BA,PALMEIRAS,BA,6.987.382.923.805
489,-13.44,-42.23,PARAMIRIM - BA,PARAMIRIM,BA,16.688.793.650.292
490,-12.69,-43.18,PARATINGA - BA,PARATINGA,BA,16.856.178.236.247
491,-10.68,-37.86,PARIPIRANGA - BA,PARIPIRANGA,BA,16.268.714.634.434
492,-15.46,-39.65,PAU BRASIL - BA,PAU BRASIL,BA,84.419.097.458.962
493,-9.4,-38.22,PAULO AFONSO - BA,PAULO AFONSO,BA,61.069.765.069.606
494,-11.83,-39.61,PE DE SERRA - BA,PE DE SERRA,BA,78.585.604.738.633
495,-12.15,-38.65,PEDRAO - BA,PEDRAO,BA,44.526.548.345.281
496,-10.01,-37.89,PEDRO ALEXANDRE - BA,PEDRO ALEXANDRE,BA,10.614.811.292.912
497,-13.15,-41.77,PIATA - BA,PIATA,BA,11.685.336.448.833
498,-10,-42.5,PILAO ARCADO - BA,PILAO ARCADO,BA,20.102.730.708.455
499,-14.49,-42.68,PINDAI - BA,PINDAI,BA,95.603.231.482.308
500,-10.74,-40.36,PINDOBACU - BA,PINDOBACU,BA,149.146.292.153
501,-11.81,-39.9,PINTADAS - BA,PINTADAS,BA,65.359.871.054.739
502,-13.76,-39.37,PIRAI DO NORTE - BA,PIRAI DO NORTE,BA,11.634.714.801.712
503,-14.94,-41.72,PIRIPA - BA,PIRIPA,BA,98.666.591.233.834
504,-11.73,-40.55,PIRITIBA - BA,PIRITIBA,BA,12.392.325.918.275
505,-13.25,-40.36,PLANALTINO - BA,PLANALTINO,BA,50.858.423.368.605
506,-14.67,-40.47,PLANALTO - BA,PLANALTO,BA,14.613.554.601.577
507,-14.53,-40.36,POCOES - BA,POCOES,BA,2.700.968.171.011
508,-12.43,-38.32,POJUCA - BA,POJUCA,BA,15.991.649.911.139
509,-10.86,-40.13,PONTO NOVO - BA,PONTO NOVO,BA,11.207.017.075.708
510,-16.45,-39.06,PORTO SEGURO - BA,PORTO SEGURO,BA,42.434.848.514.207
511,-15.59,-39.87,POTIRAGUA - BA,POTIRAGUA,BA,10.047.054.409.066
512,-17.34,-39.22,PRADO - BA,PRADO,BA,15.708.523.821.201
513,-11.29,-41.98,PRESIDENTE DUTRA - BA,PRESIDENTE DUTRA,BA,89.032.647.825.308
514,-14.68,-41.67,PRESIDENTE JANIO QUADROS - BA,PRESIDENTE JANIO QUADROS,BA,11.809.160.966.361
515,-13.44,-39.42,PRESIDENTE TANCREDO NEVES - BA,PRESIDENTE TANCREDO NEVES,BA,10.823.653.337.386
516,-10.97,-39.62,QUEIMADAS - BA,QUEIMADAS,BA,14.341.808.022.599
517,-10.75,-39.21,QUIJINGUE - BA,QUIJINGUE,BA,15.215.910.726.084
518,-11.41,-40.12,QUIXABEIRA - BA,QUIXABEIRA,BA,90.398.527.572.203
519,-12.4,-39.5,RAFAEL JAMBEIRO - BA,RAFAEL JAMBEIRO,BA,15.002.719.248.542
520,-9.62,-42.08,REMANSO - BA,REMANSO,BA,20.493.741.968.581
521,-11.49,-39.42,RETIROLANDIA - BA,RETIROLANDIA,BA,80.261.950.034.063
522,-11.74,-44.91,RIACHAO DAS NEVES - BA,RIACHAO DAS NEVES,BA,13.532.123.604.475
523,-11.81,-39.38,RIACHAO DO JACUIPE - BA,RIACHAO DO JACUIPE,BA,20.123.634.088.738
524,-13.6,-42.93,RIACHO DE SANTANA - BA,RIACHO DE SANTANA,BA,20.020.624.739.382
525,-11.04,-38.43,RIBEIRA DO AMPARO - BA,RIBEIRA DO AMPARO,BA,83.967.628.013.181
526,-10.83,-38.53,RIBEIRA DO POMBAL - BA,RIBEIRA DO POMBAL,BA,28.625.951.722.843
527,-15.45,-40.73,RIBEIRAO DO LARGO - BA,RIBEIRAO DO LARGO,BA,85.028.400.754.947
528,-13.57,-41.81,RIO DE CONTAS - BA,RIO DE CONTAS,BA,89.677.054.489.273
529,-14.41,-42.07,RIO DO ANTONIO - BA,RIO DO ANTONIO,BA,96.707.762.651.278
530,-13.12,-42.29,RIO DO PIRES - BA,RIO DO PIRES,BA,76.103.630.983.932
531,-11.48,-37.93,RIO REAL - BA,RIO REAL,BA,1.926.782.974.306
532,-8.85,-38.75,RODELAS - BA,RODELAS,BA,37.019.334.687.809
533,-12.28,-40.49,RUY BARBOSA - BA,RUY BARBOSA,BA,18.045.736.421.561
534,-12.87,-38.76,SALINAS DA MARGARIDA - BA,SALINAS DA MARGARIDA,BA,62.090.898.488.082
535,-12.97,-38.51,SALVADOR - BA,SALVADOR,BA,2211539
536,-11.95,-38.97,SANTA BARBARA - BA,SANTA BARBARA,BA,1.050.708.150.063
537,-9.73,-38.12,SANTA BRIGIDA - BA,SANTA BRIGIDA,BA,10.930.429.223.278
538,-16.27,-39.02,SANTA CRUZ CABRALIA - BA,SANTA CRUZ CABRALIA,BA,12.006.054.471.174
539,-14.96,-39.81,SANTA CRUZ DA VITORIA - BA,SANTA CRUZ DA VITORIA,BA,46.638.988.268.413
540,-13.29,-39.81,SANTA INES - BA,SANTA INES,BA,69.760.058.883.725
541,-15.42,-39.33,SANTA LUZIA - BA,SANTA LUZIA,BA,9.938.648.199.937
542,-13.39,-44.19,SANTA MARIA DA VITORIA - BA,SANTA MARIA DA VITORIA,BA,26.394.268.139.025
543,-11,-44.51,SANTA RITA DE CASSIA - BA,SANTA RITA DE CASSIA,BA,14.239.339.759.871
544,-12.77,-39.52,SANTA TERESINHA - BA,SANTA TERESINHA,BA,55.667.805.273.203
545,-11.25,-39.37,SANTALUZ - BA,SANTALUZ,BA,19.762.813.214.967
546,-12.98,-44.05,SANTANA - BA,SANTANA,BA,15.184.766.186.063
547,-12.01,-38.86,SANTANOPOLIS - BA,SANTANOPOLIS,BA,59.512.176.894.291
548,-12.54,-38.71,SANTO AMARO - BA,SANTO AMARO,BA,37.789.249.453.699
549,-12.96,-39.26,SANTO ANTONIO DE JESUS - BA,SANTO ANTONIO DE JESUS,BA,47.313.833.867.655
550,-12.43,-39.25,SANTO ESTEVAO - BA,SANTO ESTEVAO,BA,24.633.421.714.887
551,-12.36,-44.97,SAO DESIDERIO - BA,SAO DESIDERIO,BA,1.158.273.846.411
552,-11.5,-39.54,SAO DOMINGOS - BA,SAO DOMINGOS,BA,54.454.290.891.427
553,-12.84,-39.08,SAO FELIPE - BA,SAO FELIPE,BA,13.544.958.795.333
554,-12.6,-38.97,SAO FELIX - BA,SAO FELIX,BA,84.570.263.181.911
555,-13.4,-44.19,SAO FELIX DO CORIBE - BA,SAO FELIX DO CORIBE,BA,77.687.124.054.181
556,-12.62,-38.68,SAO FRANCISCO DO CONDE - BA,SAO FRANCISCO DO CONDE,BA,15.777.234.004.511
557,-11.22,-41.91,SAO GABRIEL - BA,SAO GABRIEL,BA,1.219.651.741.784
558,-12.43,-38.96,SAO GONCALO DOS CAMPOS - BA,SAO GONCALO DOS CAMPOS,BA,15.887.349.235.227
559,-15.08,-39.33,SAO JOSE DA VITORIA - BA,SAO JOSE DA VITORIA,BA,44.409.619.619.409
560,-11.41,-39.86,SAO JOSE DO JACUIPE - BA,SAO JOSE DO JACUIPE,BA,10.024.303.045.458
561,-13.04,-39.45,SAO MIGUEL DAS MATAS - BA,SAO MIGUEL DAS MATAS,BA,64.289.671.212.202
562,-12.51,-38.49,SAO SEBASTIAO DO PASSE - BA,SAO SEBASTIAO DO PASSE,BA,23.738.804.839.593
563,-12.72,-39.18,SAPEACU - BA,SAPEACU,BA,99.556.989.832.676
564,-11.6,-38.6,SATIRO DIAS - BA,SATIRO DIAS,BA,10.646.546.880.142
565,-12.73,-38.76,SAUBARA - BA,SAUBARA,BA,63.935.263.567.751
566,-10.94,-40.41,SAUDE - BA,SAUDE,BA,11.400.706.447.733
567,-12.41,-41.77,SEABRA - BA,SEABRA,BA,27.863.277.807.168
568,-14.57,-42.94,SEBASTIAO LARANJEIRAS - BA,SEBASTIAO LARANJEIRAS,BA,53.665.114.330.392
569,-10.46,-40.19,SENHOR DO BONFIM - BA,SENHOR DO BONFIM,BA,59.307.927.431.801
570,-9.74,-41.88,SENTO SE - BA,SENTO SE,BA,20.695.120.986.474
571,-13.57,-43.59,SERRA DO RAMALHO - BA,SERRA DO RAMALHO,BA,20.639.411.839.622
572,-12.76,-43.95,SERRA DOURADA - BA,SERRA DOURADA,BA,11.886.196.173.289
573,-12.16,-39.33,SERRA PRETA - BA,SERRA PRETA,BA,11.504.977.824.182
574,-11.66,-39,SERRINHA - BA,SERRINHA,BA,51.195.476.720.108
575,-11.41,-40.3,SERROLANDIA - BA,SERROLANDIA,BA,81.269.810.467.763
576,-12.78,-38.4,SIMOES FILHO - BA,SIMOES FILHO,BA,52.756.671.018.706
577,-13.08,-43.46,SITIO DO MATO - BA,SITIO DO MATO,BA,62.887.935.612.532
578,-10.35,-38.21,SITIO DO QUINTO - BA,SITIO DO QUINTO,BA,87.737.626.926.713
579,-9.45,-40.82,SOBRADINHO - BA,SOBRADINHO,BA,13.096.591.228.308
580,-12.08,-41.63,SOUTO SOARES - BA,SOUTO SOARES,BA,11.672.864.737.485
581,-12.7,-44,TABOCAS DO BREJO VELHO - BA,TABOCAS DO BREJO VELHO,BA,7.887.973.956.069
582,-14.02,-41.24,TANHACU - BA,TANHACU,BA,12.521.827.636.352
583,-13.54,-42.49,TANQUE NOVO - BA,TANQUE NOVO,BA,98.579.069.985.789
584,-11.97,-39.1,TANQUINHO - BA,TANQUINHO,BA,53.143.974.033.881
585,-13.53,-39.09,TAPEROA - BA,TAPEROA,BA,11.199.321.916.913
586,-11.84,-40.79,TAPIRAMUTA - BA,TAPIRAMUTA,BA,94.848.070.896.119
587,-17.53,-39.74,TEIXEIRA DE FREITAS - BA,TEIXEIRA DE FREITAS,BA,63.359.516.983.425
588,-12.29,-38.62,TEODORO SAMPAIO - BA,TEODORO SAMPAIO,BA,55.785.003.597.081
589,-11.48,-38.99,TEOFILANDIA - BA,TEOFILANDIA,BA,14.074.487.289.711
590,-13.6,-39.49,TEOLANDIA - BA,TEOLANDIA,BA,79.913.468.449.773
591,-12.39,-38.62,TERRA NOVA - BA,TERRA NOVA,BA,84.680.401.789.598
592,-14.97,-41.41,TREMEDAL - BA,TREMEDAL,BA,14.894.913.363.338
593,-10.96,-38.78,TUCANO - BA,TUCANO,BA,28.049.949.138.132
594,-9.84,-39.48,UAUA - BA,UAUA,BA,15.925.682.102.694
595,-13.26,-39.66,UBAIRA - BA,UBAIRA,BA,17.204.589.330.023
596,-14.31,-39.32,UBAITABA - BA,UBAITABA,BA,1.518.107.028.845
597,-14.21,-39.52,UBATA - BA,UBATA,BA,15.308.113.837.871
598,-11.33,-42.13,UIBAI - BA,UIBAI,BA,80.162.429.629.401
599,-10.73,-41.32,UMBURANAS - BA,UMBURANAS,BA,98.064.171.456.506
600,-15.29,-39.07,UNA - BA,UNA,BA,19.015.519.321.916
601,-14.77,-42.65,URANDI - BA,URANDI,BA,10.979.159.485.017
602,-14.59,-39.28,URUCUCA - BA,URUCUCA,BA,15.761.336.122.943
603,-12.08,-41.09,UTINGA - BA,UTINGA,BA,12.329.371.652.289
604,-13.37,-39.07,VALENCA - BA,VALENCA,BA,47.482.042.366.418
605,-11.41,-39.46,VALENTE - BA,VALENTE,BA,11.235.872.638.708
606,-11.6,-40.13,VARZEA DA ROCA - BA,VARZEA DA ROCA,BA,93.776.807.385.173
607,-11.52,-40.32,VARZEA DO POCO - BA,VARZEA DO POCO,BA,70.355.523.789.797
608,-11.25,-40.94,VARZEA NOVA - BA,VARZEA NOVA,BA,7.645.500.445.017
609,-12.97,-39.39,VARZEDO - BA,VARZEDO,BA,53.563.377.306.101
610,-12.96,-38.6,VERA CRUZ - BA,VERA CRUZ,BA,16.833.253.596.622
611,-17.22,-40.09,VEREDA - BA,VEREDA,BA,49.134.362.536.682
612,-14.86,-40.83,VITORIA DA CONQUISTA - BA,VITORIA DA CONQUISTA,BA,16.731.028.329.744
613,-12.28,-41.16,WAGNER - BA,WAGNER,BA,5.345.424.984.988
614,-12.12,-43.88,WANDERLEY - BA,WANDERLEY,BA,88.299.672.697.393
615,-13.68,-39.47,WENCESLAU GUIMARAES - BA,WENCESLAU GUIMARAES,BA,14.841.544.211.554
616,-10.82,-42.73,XIQUE-XIQUE - BA,XIQUE-XIQUE,BA,28.191.039.915.779
617,-7.35,-39.04,ABAIARA - CE,ABAIARA,CE,46.976.155.548.122
618,-4.22,-38.7,ACARAPE - CE,ACARAPE,CE,7.553.897.634.321
619,-2.88,-40.12,ACARAU - CE,ACARAU,CE,30.522.127.350.458
620,-6.09,-39.45,ACOPIARA - CE,ACOPIARA,CE,32.920.398.927.505
621,-6.57,-40.12,AIUABA - CE,AIUABA,CE,83.189.174.173.764
622,-3.58,-40.54,ALCANTARAS - CE,ALCANTARAS,CE,60.243.881.226.316
623,-7,-39.74,ALTANEIRA - CE,ALTANEIRA,CE,37.886.541.566.953
624,-5.52,-38.27,ALTO SANTO - CE,ALTO SANTO,CE,89.323.373.193.308
625,-3.49,-39.57,AMONTADA - CE,AMONTADA,CE,17.461.647.752.812
626,-6.77,-39.98,ANTONINA DO NORTE - CE,ANTONINA DO NORTE,CE,38.136.890.255.246
627,-3.94,-39.43,APUIARES - CE,APUIARES,CE,75.511.797.400.813
628,-3.9,-38.39,AQUIRAZ - CE,AQUIRAZ,CE,34.507.518.712.763
629,-4.56,-37.77,ARACATI - CE,ARACATI,CE,37.115.835.321.145
630,-4.37,-38.81,ARACOIABA - CE,ARACOIABA,CE,1.523.465.345.415
631,-4.75,-40.83,ARARENDA - CE,ARARENDA,CE,69.331.414.653.647
632,-7.21,-40.04,ARARIPE - CE,ARARIPE,CE,11.108.870.472.858
633,-4.41,-39.04,ARATUBA - CE,ARATUBA,CE,72.050.534.939.502
634,-6.32,-40.16,ARNEIROZ - CE,ARNEIROZ,CE,47.822.829.735.207
635,-6.87,-39.87,ASSARE - CE,ASSARE,CE,12.267.218.404.093
636,-6.94,-38.96,AURORA - CE,AURORA,CE,15.928.500.962.222
637,-6.73,-38.71,BAIXIO - CE,BAIXIO,CE,41.671.978.338.283
638,-5.31,-38.92,BANABUIU - CE,BANABUIU,CE,10.143.136.638.394
639,-7.3,-39.3,BARBALHA - CE,BARBALHA,CE,29.206.698.064.626
640,-4.28,-38.64,BARREIRA - CE,BARREIRA,CE,10.901.960.143.574
641,-7.17,-38.78,BARRO - CE,BARRO,CE,13.370.798.708.605
642,-3.01,-41.13,BARROQUINHA - CE,BARROQUINHA,CE,79.223.585.156.405
643,-4.32,-38.88,BATURITE - CE,BATURITE,CE,17.816.660.874.769
644,-4.18,-38.13,BEBERIBE - CE,BEBERIBE,CE,24.473.375.991.021
645,-3.05,-40.16,BELA CRUZ - CE,BELA CRUZ,CE,18.602.149.271.079
646,-5.12,-39.73,BOA VIAGEM - CE,BOA VIAGEM,CE,29.441.415.416.413
647,-7.49,-38.98,BREJO SANTO - CE,BREJO SANTO,CE,21.852.456.854.754
648,-2.9,-40.84,CAMOCIM - CE,CAMOCIM,CE,32.466.607.678.838
649,-7.07,-40.37,CAMPOS SALES - CE,CAMPOS SALES,CE,16.677.073.801.542
650,-4.35,-39.31,CANINDE - CE,CANINDE,CE,42.705.006.915.424
651,-4.47,-38.9,CAPISTRANO - CE,CAPISTRANO,CE,93.520.298.811.183
652,-4.23,-39.19,CARIDADE - CE,CARIDADE,CE,85.606.713.908.923
653,-3.95,-40.47,CARIRE - CE,CARIRE,CE,11.482.159.845.564
654,-7.04,-39.28,CARIRIACU - CE,CARIRIACU,CE,15.288.342.496.339
655,-6.53,-39.49,CARIUS - CE,CARIUS,CE,10.785.823.405.453
656,-4.16,-40.94,CARNAUBAL - CE,CARNAUBAL,CE,95.125.254.641.904
657,-4.13,-38.23,CASCAVEL - CE,CASCAVEL,CE,34.876.086.634.863
658,-6.13,-39.87,CATARINA - CE,CATARINA,CE,82.958.467.539.188
659,-4.64,-40.2,CATUNDA - CE,CATUNDA,CE,55.277.193.067.041
660,-3.73,-38.65,CAUCAIA - CE,CAUCAIA,CE,13.698.686.630.089
661,-6.6,-39.06,CEDRO - CE,CEDRO,CE,14.719.134.419.015
662,-3.03,-41.24,CHAVAL - CE,CHAVAL,CE,74.400.755.434.018
663,-4.84,-39.14,CHORO - CE,CHORO,CE,75.715.305.682.386
664,-4.3,-38.49,CHOROZINHO - CE,CHOROZINHO,CE,10.630.001.792.424
665,-3.53,-40.65,COREAU - CE,COREAU,CE,12.082.091.299.413
666,-5.17,-40.67,CRATEUS - CE,CRATEUS,CE,40.374.673.829.354
667,-7.23,-39.4,CRATO - CE,CRATO,CE,58.444.189.837.314
668,-4.4,-40.91,CROATA - CE,CROATA,CE,1.016.338.021.427
669,-2.91,-40.17,CRUZ - CE,CRUZ,CE,11.342.823.030.231
670,-5.91,-39.26,DEPUTADO IRAPUAN PINHEIRO - CE,DEPUTADO IRAPUAN PINHEIRO,CE,53.307.678.975.053
671,-6.03,-38.34,ERERE - CE,ERERE,CE,38.944.117.543.278
672,-3.89,-38.45,EUSEBIO - CE,EUSEBIO,CE,17.501.116.253.052
673,-6.93,-39.56,FARIAS BRITO - CE,FARIAS BRITO,CE,12.464.904.733.365
674,-3.79,-40.26,FORQUILHA - CE,FORQUILHA,CE,11.518.889.443.507
675,-3.71,-38.54,FORTALEZA - CE,FORTALEZA,CE,1965513
676,-4.45,-37.79,FORTIM - CE,FORTIM,CE,76.101.782.424.155
677,-3.76,-40.81,FRECHEIRINHA - CE,FRECHEIRINHA,CE,75.638.495.230.189
678,-4.05,-39.45,GENERAL SAMPAIO - CE,GENERAL SAMPAIO,CE,3.026.924.797.465
679,-4.04,-40.75,GRACA - CE,GRACA,CE,96.512.967.399.471
680,-3.12,-40.82,GRANJA - CE,GRANJA,CE,27.307.422.954.218
681,-6.88,-39.21,GRANJEIRO - CE,GRANJEIRO,CE,30.296.517.139.605
682,-3.91,-40.38,GROAIRAS - CE,GROAIRAS,CE,57.215.708.131.196
683,-4.04,-38.63,GUAIUBA - CE,GUAIUBA,CE,11.629.154.195.065
684,-4.16,-40.74,GUARACIABA DO NORTE - CE,GUARACIABA DO NORTE,CE,19.436.951.778.891
685,-4.26,-38.93,GUARAMIRANGA - CE,GUARAMIRANGA,CE,34.956.847.761.501
686,-4.4,-40.43,HIDROLANDIA - CE,HIDROLANDIA,CE,11.034.432.552.057
687,-4.09,-38.49,HORIZONTE - CE,HORIZONTE,CE,17.607.722.280.247
688,-4.8,-38.75,IBARETAMA - CE,IBARETAMA,CE,68.179.810.096.009
689,-3.92,-40.88,IBIAPINA - CE,IBIAPINA,CE,13.214.863.667.991
690,-4.97,-38.63,IBICUITINGA - CE,IBICUITINGA,CE,60.069.139.797.828
691,-4.71,-37.35,ICAPUI - CE,ICAPUI,CE,10.020.738.073.929
692,-6.4,-38.86,ICO - CE,ICO,CE,40.071.452.096.017
693,-6.35,-39.29,IGUATU - CE,IGUATU,CE,54.524.023.431.777
694,-5.39,-40.3,INDEPENDENCIA - CE,INDEPENDENCIA,CE,15.879.056.737.081
695,-4.9,-40.75,IPAPORANGA - CE,IPAPORANGA,CE,72.840.256.925.842
696,-6.79,-38.71,IPAUMIRIM - CE,IPAUMIRIM,CE,72.770.864.824.537
697,-4.32,-40.71,IPU - CE,IPU,CE,21.769.303.692.274
698,-4.54,-40.71,IPUEIRAS - CE,IPUEIRAS,CE,22.680.172.664.671
699,-5.81,-38.3,IRACEMA - CE,IRACEMA,CE,83.806.938.799.374
700,-3.74,-39.78,IRAUCUBA - CE,IRAUCUBA,CE,10.897.642.148.904
701,-4.67,-37.82,ITAICABA - CE,ITAICABA,CE,40.077.482.798.097
702,-3.96,-38.52,ITAITINGA - CE,ITAITINGA,CE,16.123.294.032.428
703,-3.68,-39.58,ITAPAGE - CE,ITAPAGE,CE,24.959.089.110.796
704,-3.36,-39.83,ITAPIPOCA - CE,ITAPIPOCA,CE,4.931.576.648.775
705,-4.56,-38.92,ITAPIUNA - CE,ITAPIUNA,CE,97.180.073.376.661
706,-2.92,-39.91,ITAREMA - CE,ITAREMA,CE,16.577.931.838.132
707,-4.52,-39.62,ITATIRA - CE,ITATIRA,CE,88.617.485.414.112
708,-5.61,-38.76,JAGUARETAMA - CE,JAGUARETAMA,CE,11.706.586.639.035
709,-5.65,-38.62,JAGUARIBARA - CE,JAGUARIBARA,CE,48.604.479.715.378
710,-5.89,-38.62,JAGUARIBE - CE,JAGUARIBE,CE,20.238.045.876.405
711,-4.83,-37.78,JAGUARUANA - CE,JAGUARUANA,CE,17.758.115.282.073
712,-7.58,-39.29,JARDIM - CE,JARDIM,CE,16.166.387.014.336
713,-7.68,-39.01,JATI - CE,JATI,CE,41.676.451.118.646
714,-2.79,-40.51,JIJOCA DE JERICOACOARA - CE,JIJOCA DE JERICOACOARA,CE,63.388.102.982.503
715,-7.21,-39.31,JUAZEIRO DO NORTE - CE,JUAZEIRO DO NORTE,CE,11.719.939.181.539
716,-6.52,-39.52,JUCAS - CE,JUCAS,CE,13.045.144.039.399
717,-6.75,-38.97,LAVRAS DA MANGABEIRA - CE,LAVRAS DA MANGABEIRA,CE,20.556.600.130.815
718,-5.14,-38.09,LIMOEIRO DO NORTE - CE,LIMOEIRO DO NORTE,CE,28.212.483.634.005
719,-4.85,-39.57,MADALENA - CE,MADALENA,CE,90.916.819.345.719
720,-3.87,-38.62,MARACANAU - CE,MARACANAU,CE,10.203.258.759.901
721,-3.89,-38.68,MARANGUAPE - CE,MARANGUAPE,CE,56.921.709.197.199
722,-3.12,-40.14,MARCO - CE,MARCO,CE,11.299.369.740.158
723,-3.22,-40.69,MARTINOPOLE - CE,MARTINOPOLE,CE,50.352.075.251.284
724,-3.52,-40.34,MASSAPE - CE,MASSAPE,CE,16.611.090.217.883
725,-7.38,-38.77,MAURITI - CE,MAURITI,CE,26.581.476.704.427
726,-3.54,-40.45,MERUOCA - CE,MERUOCA,CE,71.610.204.148.472
727,-7.31,-38.94,MILAGRES - CE,MILAGRES,CE,16.432.743.292.565
728,-5.67,-39.19,MILHA - CE,MILHA,CE,82.650.843.746.268
729,-3.56,-39.97,MIRAIMA - CE,MIRAIMA,CE,69.644.302.666.155
730,-7.25,-39.14,MISSAO VELHA - CE,MISSAO VELHA,CE,19.263.062.663.157
731,-5.74,-39.62,MOMBACA - CE,MOMBACA,CE,24.885.617.733.207
732,-4.78,-40.06,MONSENHOR TABOSA - CE,MONSENHOR TABOSA,CE,10.044.957.807.388
733,-5.1,-38.37,MORADA NOVA - CE,MORADA NOVA,CE,42.167.335.370.497
734,-3.46,-40.68,MORAUJO - CE,MORAUJO,CE,44.111.436.875.641
735,-3.22,-40.12,MORRINHOS - CE,MORRINHOS,CE,95.595.535.480.072
736,-3.9,-40.74,MUCAMBO - CE,MUCAMBO,CE,76.718.305.027.122
737,-4.3,-38.99,MULUNGU - CE,MULUNGU,CE,49.970.673.935.128
738,-7.09,-39.68,NOVA OLINDA - CE,NOVA OLINDA,CE,72.246.659.450.514
739,-4.7,-40.56,NOVA RUSSAS - CE,NOVA RUSSAS,CE,18.217.331.740.009
740,-5.53,-40.77,NOVO ORIENTE - CE,NOVO ORIENTE,CE,16.167.140.037.686
741,-4.49,-38.59,OCARA - CE,OCARA,CE,13.858.893.503.746
742,-6.24,-38.91,OROS - CE,OROS,CE,13.184.833.182.854
743,-4.17,-38.46,PACAJUS - CE,PACAJUS,CE,2.352.631.528.591
744,-3.98,-38.62,PACATUBA - CE,PACATUBA,CE,2.719.724.342.916
745,-4.22,-38.92,PACOTI - CE,PACOTI,CE,6.701.050.351.928
746,-3.98,-40.69,PACUJA - CE,PACUJA,CE,36.360.393.652.132
747,-4.74,-37.95,PALHANO - CE,PALHANO,CE,46.679.844.264.574
748,-4.15,-38.84,PALMACIA - CE,PALMACIA,CE,67.693.751.751.879
749,-3.41,-39.03,PARACURU - CE,PARACURU,CE,15.652.577.304.643
750,-3.43,-39.14,PARAIPABA - CE,PARAIPABA,CE,1.429.917.744.025
751,-6.21,-40.69,PARAMBU - CE,PARAMBU,CE,19.127.307.392.163
752,-4.09,-39.23,PARAMOTI - CE,PARAMOTI,CE,70.906.171.521.682
753,-5.45,-39.71,PEDRA BRANCA - CE,PEDRA BRANCA,CE,22.697.728.352.234
754,-7.82,-39.07,PENAFORTE - CE,PENAFORTE,CE,38.270.072.472.828
755,-3.79,-39.27,PENTECOSTE - CE,PENTECOSTE,CE,17.606.053.361.388
756,-6.04,-38.46,PEREIRO - CE,PEREIRO,CE,86.856.302.135.947
757,-4.02,-38.3,PINDORETAMA - CE,PINDORETAMA,CE,92.552.918.927.716
758,-5.8,-39.41,PIQUET CARNEIRO - CE,PIQUET CARNEIRO,CE,77.984.884.994.009
759,-4.24,-40.64,PIRES FERREIRA - CE,PIRES FERREIRA,CE,70.838.741.953.679
760,-4.74,-40.92,PORANGA - CE,PORANGA,CE,76.400.716.206.247
761,-7.53,-39.11,PORTEIRAS - CE,PORTEIRAS,CE,98.365.937.730.956
762,-7.09,-40.02,POTENGI - CE,POTENGI,CE,52.191.765.553.409
763,-5.66,-38.25,POTIRETAMA - CE,POTIRETAMA,CE,39.918.133.218.413
764,-5.84,-40.7,QUITERIANOPOLIS - CE,QUITERIANOPOLIS,CE,10.893.532.977.665
765,-4.97,-39.01,QUIXADA - CE,QUIXADA,CE,43.431.479.614.776
766,-6.25,-39.2,QUIXELO - CE,QUIXELO,CE,95.674.170.090.875
767,-5.19,-39.29,QUIXERAMOBIM - CE,QUIXERAMOBIM,CE,38.267.625.204.908
768,-5.07,-37.98,QUIXERE - CE,QUIXERE,CE,10.672.349.012.098
769,-4.22,-38.73,REDENCAO - CE,REDENCAO,CE,13.805.164.717.297
770,-4.14,-40.58,RERIUTABA - CE,RERIUTABA,CE,1.235.960.449.169
771,-4.94,-37.97,RUSSAS - CE,RUSSAS,CE,33.904.495.032.344
772,-6.54,-39.9,SABOEIRO - CE,SABOEIRO,CE,10.112.676.337.018
773,-7.28,-40.45,SALITRE - CE,SALITRE,CE,83.155.967.347.026
774,-4.33,-40.15,SANTA QUITERIA - CE,SANTA QUITERIA,CE,26.402.427.143.571
775,-3.46,-40.21,SANTANA DO ACARAU - CE,SANTANA DO ACARAU,CE,16.839.274.680.501
776,-7.18,-39.73,SANTANA DO CARIRI - CE,SANTANA DO CARIRI,CE,10.991.862.736.719
777,-4.04,-40.86,SAO BENEDITO - CE,SAO BENEDITO,CE,23.585.522.617.178
778,-3.6,-38.96,SAO GONCALO DO AMARANTE - CE,SAO GONCALO DO AMARANTE,CE,20.219.954.364.788
779,-5.27,-38.27,SAO JOAO DO JAGUARIBE - CE,SAO JOAO DO JAGUARIBE,CE,5.101.847.675.117
780,-3.67,-39.24,SAO LUIS DO CURU - CE,SAO LUIS DO CURU,CE,68.289.211.170.086
781,-5.58,-39.37,SENADOR POMPEU - CE,SENADOR POMPEU,CE,16.817.006.724.171
782,-3.35,-40.46,SENADOR SA - CE,SENADOR SA,CE,34.619.321.111.526
783,-3.68,-40.35,SOBRAL - CE,SOBRAL,CE,91.026.203.195.774
784,-5.73,-39,SOLONOPOLE - CE,SOLONOPOLE,CE,99.516.141.629.225
785,-5.24,-38.13,TABULEIRO DO NORTE - CE,TABULEIRO DO NORTE,CE,16.015.347.659.155
786,-4.83,-40.32,TAMBORIL - CE,TAMBORIL,CE,18.186.726.506.235
787,-6.68,-39.76,TARRAFAS - CE,TARRAFAS,CE,53.347.015.281.494
788,-6,-40.29,TAUA - CE,TAUA,CE,30.597.870.022.342
789,-3.98,-39.58,TEJUCUOCA - CE,TEJUCUOCA,CE,73.676.196.063.075
790,-3.73,-40.99,TIANGUA - CE,TIANGUA,CE,30.380.164.919.208
791,-3.27,-39.26,TRAIRI - CE,TRAIRI,CE,27.402.109.507.539
792,-3.58,-39.43,TURURU - CE,TURURU,CE,7.044.759.944.926
793,-3.85,-40.92,UBAJARA - CE,UBAJARA,CE,18.310.896.866.789
794,-6.64,-38.7,UMARI - CE,UMARI,CE,53.050.679.417.933
795,-3.67,-39.35,UMIRIM - CE,UMIRIM,CE,99.709.085.075.271
796,-3.62,-39.5,URUBURETAMA - CE,URUBURETAMA,CE,94.916.336.193.468
797,-3.31,-40.55,URUOCA - CE,URUOCA,CE,68.408.694.753.224
798,-4.19,-40.47,VARJOTA - CE,VARJOTA,CE,89.921.825.061.178
799,-6.78,-39.29,VARZEA ALEGRE - CE,VARZEA ALEGRE,CE,22.070.738.028.777
800,-3.56,-41.09,VICOSA DO CEARA - CE,VICOSA DO CEARA,CE,27.435.086.987.793
801,-15.78,-47.93,BRASILIA - DF,BRASILIA,DF,1821946
802,-20.07,-41.12,AFONSO CLAUDIO - ES,AFONSO CLAUDIO,ES,21.019.910.307.887
803,-18.54,-40.97,AGUA DOCE DO NORTE - ES,AGUA DOCE DO NORTE,ES,79.438.080.920.391
804,-18.98,-40.74,AGUIA BRANCA - ES,AGUIA BRANCA,ES,59.185.432.505.028
805,-20.76,-41.53,ALEGRE - ES,ALEGRE,ES,19.824.288.743.853
806,-20.63,-40.75,ALFREDO CHAVES - ES,ALFREDO CHAVES,ES,84.598.270.392.306
807,-19.05,-41.01,ALTO RIO NOVO - ES,ALTO RIO NOVO,ES,46.229.373.389.884
808,-20.79,-40.65,ANCHIETA - ES,ANCHIETA,ES,11.110.530.928.638
809,-21.15,-41.56,APIACA - ES,APIACA,ES,44.102.227.991.768
810,-19.82,-40.27,ARACRUZ - ES,ARACRUZ,ES,392.874.520.278
811,-20.91,-41.19,ATILIO VIVACQUA - ES,ATILIO VIVACQUA,ES,44.805.625.577.608
812,-19.51,-41.01,BAIXO GUANDU - ES,BAIXO GUANDU,ES,16.404.742.078.521
813,-18.75,-40.89,BARRA DE SAO FRANCISCO - ES,BARRA DE SAO FRANCISCO,ES,24.661.670.015.249
814,-18.54,-40.29,BOA ESPERANCA - ES,BOA ESPERANCA,ES,79.947.767.141.524
815,-21.11,-41.67,BOM JESUS DO NORTE - ES,BOM JESUS DO NORTE,ES,53.606.740.845.359
816,-20.14,-41.29,BREJETUBA - ES,BREJETUBA,ES,59.782.167.101.623
817,-20.84,-41.11,CACHOEIRO DE ITAPEMIRIM - ES,CACHOEIRO DE ITAPEMIRIM,ES,10.228.946.078.632
818,-20.26,-40.42,CARIACICA - ES,CARIACICA,ES,19.159.156.609.099
819,-20.6,-41.18,CASTELO - ES,CASTELO,ES,18.750.830.450.024
820,-19.53,-40.63,COLATINA - ES,COLATINA,ES,70.695.962.097.228
821,-18.59,-39.73,CONCEICAO DA BARRA - ES,CONCEICAO DA BARRA,ES,16.986.803.467.204
822,-20.36,-41.24,CONCEICAO DO CASTELO - ES,CONCEICAO DO CASTELO,ES,67.025.417.322.916
823,-20.62,-41.68,DIVINO DE SAO LOURENCO - ES,DIVINO DE SAO LOURENCO,ES,2.766.308.690.579
824,-20.36,-40.65,DOMINGOS MARTINS - ES,DOMINGOS MARTINS,ES,15.846.696.424.757
825,-20.68,-41.84,DORES DO RIO PRETO - ES,DORES DO RIO PRETO,ES,36.136.249.597.926
826,-18.37,-40.83,ECOPORANGA - ES,ECOPORANGA,ES,13.471.602.355.767
827,-19.93,-40.4,FUNDAO - ES,FUNDAO,ES,69.891.142.517.697
828,-20.77,-41.67,GUACUI - ES,GUACUI,ES,16.672.463.300.478
829,-20.65,-40.51,GUARAPARI - ES,GUARAPARI,ES,50.570.909.941.295
830,-20.23,-41.51,IBATIBA - ES,IBATIBA,ES,10.820.258.781.196
831,-19.83,-40.37,IBIRACU - ES,IBIRACU,ES,6.278.875.103.613
832,-20.54,-41.66,IBITIRAMA - ES,IBITIRAMA,ES,51.083.803.551.237
833,-20.79,-40.81,ICONHA - ES,ICONHA,ES,70.715.683.326.886
834,-20.34,-41.64,IRUPI - ES,IRUPI,ES,66.852.331.700.667
835,-19.8,-40.85,ITAGUACU - ES,ITAGUACU,ES,90.632.922.976.459
836,-21.01,-40.83,ITAPEMIRIM - ES,ITAPEMIRIM,ES,17.098.268.175.332
837,-19.87,-40.87,ITARANA - ES,ITARANA,ES,67.627.927.431.091
838,-20.34,-41.53,IUNA - ES,IUNA,ES,15.689.066.492.365
839,-18.9,-40.07,JAGUARE - ES,JAGUARE,ES,12.307.543.407.677
840,-20.78,-41.39,JERONIMO MONTEIRO - ES,JERONIMO MONTEIRO,ES,61.480.100.026.447
841,-19.75,-40.38,JOAO NEIVA - ES,JOAO NEIVA,ES,92.517.193.104.954
842,-19.89,-41.05,LARANJA DA TERRA - ES,LARANJA DA TERRA,ES,69.107.698.157.632
843,-19.39,-40.07,LINHARES - ES,LINHARES,ES,63.588.868.779.309
844,-18.86,-41.12,MANTENOPOLIS - ES,MANTENOPOLIS,ES,7.782.953.610.781
845,-21.04,-40.82,MARATAIZES - ES,MARATAIZES,ES,15.986.381.628.652
846,-20.41,-40.68,MARECHAL FLORIANO - ES,MARECHAL FLORIANO,ES,75.203.040.086.891
847,-19.41,-40.54,MARILANDIA - ES,MARILANDIA,ES,65.169.373.644.879
848,-21.06,-41.36,MIMOSO DO SUL - ES,MIMOSO DO SUL,ES,16.957.883.473.519
849,-18.12,-40.36,MONTANHA - ES,MONTANHA,ES,12.023.145.923.598
850,-18.09,-40.51,MUCURICI - ES,MUCURICI,ES,40.094.426.136.156
851,-20.46,-41.41,MUNIZ FREIRE - ES,MUNIZ FREIRE,ES,12.833.319.989.138
852,-20.95,-41.34,MUQUI - ES,MUQUI,ES,8.808.743.616.322
853,-18.71,-40.4,NOVA VENECIA - ES,NOVA VENECIA,ES,29.040.964.271.158
854,-19.22,-40.85,PANCAS - ES,PANCAS,ES,12.572.794.482.329
855,-18.03,-40.15,PEDRO CANARIO - ES,PEDRO CANARIO,ES,15.077.156.828.895
856,-18.38,-40.12,PINHEIROS - ES,PINHEIROS,ES,13.102.751.525.497
857,-20.83,-40.72,PIUMA - ES,PIUMA,ES,7.455.716.863.107
858,-18.12,-40.54,PONTO BELO - ES,PONTO BELO,ES,42.477.982.152.205
859,-21.09,-41.04,PRESIDENTE KENNEDY - ES,PRESIDENTE KENNEDY,ES,62.171.801.119.279
860,-19.26,-40.33,RIO BANANAL - ES,RIO BANANAL,ES,11.044.660.805.647
861,-20.86,-40.93,RIO NOVO DO SUL - ES,RIO NOVO DO SUL,ES,66.230.595.323.968
862,-20.1,-40.53,SANTA LEOPOLDINA - ES,SANTA LEOPOLDINA,ES,73.943.429.398.682
863,-20.04,-40.74,SANTA MARIA DE JETIBA - ES,SANTA MARIA DE JETIBA,ES,15.965.873.804.155
864,-19.93,-40.6,SANTA TERESA - ES,SANTA TERESA,ES,13.350.544.565.184
865,-19.14,-40.62,SAO DOMINGOS DO NORTE - ES,SAO DOMINGOS DO NORTE,ES,45.070.297.323.199
866,-19.01,-40.53,SAO GABRIEL DA PALHA - ES,SAO GABRIEL DA PALHA,ES,15.316.492.527.501
867,-21.02,-41.65,SAO JOSE DO CALCADO - ES,SAO JOSE DO CALCADO,ES,66.219.148.341.219
868,-18.71,-39.85,SAO MATEUS - ES,SAO MATEUS,ES,54.113.215.850.728
869,-19.73,-40.65,SAO ROQUE DO CANAA - ES,SAO ROQUE DO CANAA,ES,59.967.212.545.166
870,-20.12,-40.3,SERRA - ES,SERRA,ES,16.384.577.100.214
871,-19.19,-40.09,SOORETAMA - ES,SOORETAMA,ES,10.073.255.348.323
872,-20.67,-41,VARGEM ALTA - ES,VARGEM ALTA,ES,88.108.348.050.118
873,-20.34,-41.13,VENDA NOVA DO IMIGRANTE - ES,VENDA NOVA DO IMIGRANTE,ES,98.682.598.082.828
874,-20.39,-40.49,VIANA - ES,VIANA,ES,32.636.681.712.896
875,-18.61,-40.61,VILA PAVAO - ES,VILA PAVAO,ES,5.334.491.014.965
876,-18.99,-40.38,VILA VALERIO - ES,VILA VALERIO,ES,88.578.173.274.068
877,-20.33,-40.29,VILA VELHA - ES,VILA VELHA,ES,18.367.398.090.813
878,-20.31,-40.33,VITORIA - ES,VITORIA,ES,16.499.506.649.652
879,-16.75,-49.43,ABADIA DE GOIAS - GO,ABADIA DE GOIAS,GO,21.125.013.960.711
880,-16.2,-48.7,ABADIANIA - GO,ABADIANIA,GO,61.561.756.166.169
881,-17.39,-50.37,ACREUNA - GO,ACREUNA,GO,96.979.341.320.865
882,-16.41,-50.16,ADELANDIA - GO,ADELANDIA,GO,1.822.258.109.581
883,-14.98,-47.78,AGUA FRIA DE GOIAS - GO,AGUA FRIA DE GOIAS,GO,23.236.551.488.979
884,-18.07,-48.76,AGUA LIMPA - GO,AGUA LIMPA,GO,13.260.369.880.905
885,-15.76,-48.28,AGUAS LINDAS DE GOIAS - GO,AGUAS LINDAS DE GOIAS,GO,4.092.450.474.767
886,-16.08,-48.5,ALEXANIA - GO,ALEXANIA,GO,11.277.557.291.477
887,-17.72,-49.48,ALOANDIA - GO,ALOANDIA,GO,12.945.718.767.997
888,-14.19,-49.33,ALTO HORIZONTE - GO,ALTO HORIZONTE,GO,15.140.481.068.651
889,-14.13,-47.51,ALTO PARAISO DE GOIAS - GO,ALTO PARAISO DE GOIAS,GO,34.999.816.229.769
890,-14.48,-46.49,ALVORADA DO NORTE - GO,ALVORADA DO NORTE,GO,5.254.204.314.979
891,-13.92,-49.29,AMARALINA - GO,AMARALINA,GO,17.047.424.613.471
892,-16.25,-49.98,AMERICANO DO BRASIL - GO,AMERICANO DO BRASIL,GO,32.652.938.639.079
893,-16.61,-51.09,AMORINOPOLIS - GO,AMORINOPOLIS,GO,26.719.741.460.839
894,-16.32,-48.95,ANAPOLIS - GO,ANAPOLIS,GO,18.141.625.615.021
895,-18.33,-48.21,ANHANGUERA - GO,ANHANGUERA,GO,55.501.793.014.288
896,-16.46,-49.96,ANICUNS - GO,ANICUNS,GO,11.815.281.454.395
897,-16.82,-49.24,APARECIDA DE GOIANIA - GO,APARECIDA DE GOIANIA,GO,18.417.186.269.809
898,-18.29,-51.14,APARECIDA DO RIO DOCE - GO,APARECIDA DO RIO DOCE,GO,14.374.334.083.483
899,-18.96,-51.92,APORE - GO,APORE,GO,20.774.601.684.196
900,-16.35,-49.68,ARACU - GO,ARACU,GO,24.842.707.918.502
901,-15.89,-52.25,ARAGARCAS - GO,ARAGARCAS,GO,1.111.625.380.988
902,-16.91,-49.45,ARAGOIANIA - GO,ARAGOIANIA,GO,35.658.836.994.361
903,-15.09,-50.63,ARAGUAPAZ - GO,ARAGUAPAZ,GO,47.957.291.091.283
904,-16.38,-51.56,ARENOPOLIS - GO,ARENOPOLIS,GO,27.516.652.567.095
905,-14.92,-51.08,ARUANA - GO,ARUANA,GO,36.006.032.813.834
906,-16.68,-50.46,AURILANDIA - GO,AURILANDIA,GO,32.223.255.872.895
907,-16.46,-49.75,AVELINOPOLIS - GO,AVELINOPOLIS,GO,17.088.363.848.014
908,-16.19,-52.54,BALIZA - GO,BALIZA,GO,27.224.869.634.858
909,-14.97,-48.91,BARRO ALTO - GO,BARRO ALTO,GO,46.844.143.821.652
910,-16.97,-48.95,BELA VISTA DE GOIAS - GO,BELA VISTA DE GOIAS,GO,12.096.149.085.073
911,-16.21,-52.17,BOM JARDIM DE GOIAS - GO,BOM JARDIM DE GOIAS,GO,49.082.996.930.684
912,-18.21,-49.74,BOM JESUS DE GOIAS - GO,BOM JESUS DE GOIAS,GO,92.127.191.547.425
913,-16.61,-48.96,BONFINOPOLIS - GO,BONFINOPOLIS,GO,29.626.886.488.099
914,-13.63,-49.81,BONOPOLIS - GO,BONOPOLIS,GO,15.959.864.672.178
915,-16.43,-49.38,BRAZABRANTES - GO,BRAZABRANTES,GO,17.604.454.902.558
916,-15.24,-51.16,BRITANIA - GO,BRITANIA,GO,36.015.989.099.544
917,-18.14,-49.04,BURITI ALEGRE - GO,BURITI ALEGRE,GO,59.871.506.397.657
918,-16.18,-50.43,BURITI DE GOIAS - GO,BURITI DE GOIAS,GO,15.938.206.270.518
919,-14.47,-46.4,BURITINOPOLIS - GO,BURITINOPOLIS,GO,23.212.435.892.118
920,-15.8,-46.92,CABECEIRAS - GO,CABECEIRAS,GO,3.752.783.105.282
921,-18.76,-50.94,CACHOEIRA ALTA - GO,CACHOEIRA ALTA,GO,5.315.912.505.976
922,-16.66,-50.64,CACHOEIRA DE GOIAS - GO,CACHOEIRA DE GOIAS,GO,88.207.834.406.465
923,-18.49,-49.47,CACHOEIRA DOURADA - GO,CACHOEIRA DOURADA,GO,50.461.939.982.534
924,-18.55,-51.13,CACU - GO,CACU,GO,70.478.428.099.442
925,-16.95,-51.81,CAIAPONIA - GO,CAIAPONIA,GO,98.559.395.419.952
926,-17.74,-48.62,CALDAS NOVAS - GO,CALDAS NOVAS,GO,26.496.717.588.055
927,-16.71,-49,CALDAZINHA - GO,CALDAZINHA,GO,16.876.844.941.337
928,-16.76,-49.69,CAMPESTRE DE GOIAS - GO,CAMPESTRE DE GOIAS,GO,16.315.349.855.776
929,-13.79,-48.57,CAMPINACU - GO,CAMPINACU,GO,25.083.048.928.994
930,-14.31,-49.15,CAMPINORTE - GO,CAMPINORTE,GO,58.679.967.871.335
931,-17.63,-47.78,CAMPO ALEGRE DE GOIAS - GO,CAMPO ALEGRE DE GOIAS,GO,30.744.208.761.482
932,-13.03,-46.77,CAMPOS BELOS - GO,CAMPOS BELOS,GO,9.590.658.782.469
933,-14.25,-49.65,CAMPOS VERDES - GO,CAMPOS VERDES,GO,85.866.100.256.644
934,-15.35,-49.7,CARMO DO RIO VERDE - GO,CARMO DO RIO VERDE,GO,53.057.344.098.773
935,-18.09,-50.2,CASTELANDIA - GO,CASTELANDIA,GO,23.520.624.287.915
936,-18.17,-47.94,CATALAO - GO,CATALAO,GO,36.219.001.014.737
937,-16.44,-49.49,CATURAI - GO,CATURAI,GO,2.720.636.081.084
938,-13.79,-47.45,CAVALCANTE - GO,CAVALCANTE,GO,62.945.754.498.559
939,-15.3,-49.59,CERES - GO,CERES,GO,14.065.737.720.255
940,-16.97,-49.77,CEZARINA - GO,CEZARINA,GO,3.981.518.424.203
941,-18.4,-52.54,CHAPADAO DO CEU - GO,CHAPADAO DO CEU,GO,1.673.594.058.463
942,-16.07,-47.92,CIDADE OCIDENTAL - GO,CIDADE OCIDENTAL,GO,20.969.571.456.641
943,-15.79,-48.77,COCALZINHO DE GOIAS - GO,COCALZINHO DE GOIAS,GO,85.550.599.757.443
944,-14.15,-48.07,COLINAS DO SUL - GO,COLINAS DO SUL,GO,23.962.966.942.617
945,-16.29,-50.54,CORREGO DO OURO - GO,CORREGO DO OURO,GO,21.634.891.541.936
946,-15.92,-48.8,CORUMBA DE GOIAS - GO,CORUMBA DE GOIAS,GO,53.092.510.212.768
947,-18.14,-48.56,CORUMBAIBA - GO,CORUMBAIBA,GO,40.102.987.719.176
948,-16.76,-47.61,CRISTALINA - GO,CRISTALINA,GO,18.377.510.019.459
949,-17.19,-48.7,CRISTIANOPOLIS - GO,CRISTIANOPOLIS,GO,17.711.265.362.286
950,-14.54,-49.96,CRIXAS - GO,CRIXAS,GO,99.041.847.774.312
951,-17.28,-49.38,CROMINIA - GO,CROMINIA,GO,25.101.396.839.502
952,-18.26,-48.15,CUMARI - GO,CUMARI,GO,2.148.768.987.569
953,-14.56,-46.17,DAMIANOPOLIS - GO,DAMIANOPOLIS,GO,23.323.357.281.081
954,-16.25,-49.37,DAMOLANDIA - GO,DAMOLANDIA,GO,16.255.027.845.113
955,-18.15,-47.56,DAVINOPOLIS - GO,DAVINOPOLIS,GO,12.764.348.057.423
956,-16.23,-51.25,DIORAMA - GO,DIORAMA,GO,17.569.454.125.685
957,-13.29,-46.39,DIVINOPOLIS DE GOIAS - GO,DIVINOPOLIS DE GOIAS,GO,34.316.683.134.175
958,-16.72,-52.31,DOVERLANDIA - GO,DOVERLANDIA,GO,4.628.704.719.296
959,-17.42,-49.66,EDEALINA - GO,EDEALINA,GO,26.371.229.523.919
960,-17.33,-49.93,EDEIA - GO,EDEIA,GO,65.570.655.893.545
961,-13.86,-49.07,ESTRELA DO NORTE - GO,ESTRELA DO NORTE,GO,24.519.360.523.009
962,-15.44,-50.36,FAINA - GO,FAINA,GO,51.311.027.971.181
963,-16.18,-50.78,FAZENDA NOVA - GO,FAZENDA NOVA,GO,51.800.563.454.555
964,-16.58,-50.3,FIRMINOPOLIS - GO,FIRMINOPOLIS,GO,60.255.769.963.688
965,-14.44,-47.05,FLORES DE GOIAS - GO,FLORES DE GOIAS,GO,32.402.249.902.768
966,-15.53,-47.33,FORMOSA - GO,FORMOSA,GO,41.806.923.344.392
967,-13.65,-48.88,FORMOSO - GO,FORMOSO,GO,40.496.111.108.349
968,-16.51,-49.02,GOIANAPOLIS - GO,GOIANAPOLIS,GO,67.269.074.508.157
969,-18.13,-48.08,GOIANDIRA - GO,GOIANDIRA,GO,34.761.385.562.685
970,-15.31,-49.11,GOIANESIA - GO,GOIANESIA,GO,30.308.551.357.535
971,-16.67,-49.25,GOIANIA - GO,GOIANIA,GO,1002377
972,-16.49,-49.42,GOIANIRA - GO,GOIANIRA,GO,96.237.285.894.063
973,-15.93,-50.14,GOIAS - GO,GOIAS,GO,18.710.664.130.984
974,-18.01,-49.35,GOIATUBA - GO,GOIATUBA,GO,19.162.901.166.143
975,-18.64,-50.06,GOUVELANDIA - GO,GOUVELANDIA,GO,27.417.525.505.365
976,-16.83,-49.53,GUAPO - GO,GUAPO,GO,80.800.075.013.976
977,-15.61,-50.02,GUARAITA - GO,GUARAITA,GO,2.024.936.528.859
978,-13.93,-46.48,GUARANI DE GOIAS - GO,GUARANI DE GOIAS,GO,32.418.243.288.601
979,-14.73,-49.7,GUARINOS - GO,GUARINOS,GO,20.325.018.178.754
980,-15.71,-49.82,HEITORAI - GO,HEITORAI,GO,18.106.100.589.633
981,-16.96,-49.22,HIDROLANDIA - GO,HIDROLANDIA,GO,7.451.499.321.117
982,-14.72,-49.46,HIDROLINA - GO,HIDROLINA,GO,29.089.866.518.791
983,-14.09,-46.63,IACIARA - GO,IACIARA,GO,63.741.916.034.574
984,-18.48,-49.98,INACIOLANDIA - GO,INACIOLANDIA,GO,34.075.151.633.246
985,-17.14,-49.98,INDIARA - GO,INDIARA,GO,78.956.775.112.436
986,-16.35,-49.49,INHUMAS - GO,INHUMAS,GO,26.810.568.836.914
987,-17.72,-48.16,IPAMERI - GO,IPAMERI,GO,13.821.943.986.606
988,-16.44,-51.11,IPORA - GO,IPORA,GO,19.767.314.933.041
989,-16.31,-50.9,ISRAELANDIA - GO,ISRAELANDIA,GO,20.738.353.066.486
990,-16.02,-49.81,ITABERAI - GO,ITABERAI,GO,164.333.005.347
991,-15.91,-49.6,ITAGUARI - GO,ITAGUARI,GO,28.279.537.436.544
992,-15.75,-49.63,ITAGUARU - GO,ITAGUARU,GO,37.276.570.247.988
993,-19.06,-51.54,ITAJA - GO,ITAJA,GO,3.759.841.089.351
994,-14.95,-49.54,ITAPACI - GO,ITAPACI,GO,80.631.311.208.886
995,-15.82,-50.61,ITAPIRAPUA - GO,ITAPIRAPUA,GO,56.963.221.866.446
996,-15.56,-49.94,ITAPURANGA - GO,ITAPURANGA,GO,19.138.968.565.766
997,-18.76,-51.34,ITARUMA - GO,ITARUMA,GO,3.934.071.655.484
998,-16.2,-49.6,ITAUCU - GO,ITAUCU,GO,57.699.241.649.238
999,-18.42,-49.21,ITUMBIARA - GO,ITUMBIARA,GO,53.996.221.369.069
1000,-16.6,-50.79,IVOLANDIA - GO,IVOLANDIA,GO,21.252.598.926.096
1001,-17.04,-50.14,JANDAIA - GO,JANDAIA,GO,45.178.783.286.271
1002,-15.75,-49.33,JARAGUA - GO,JARAGUA,GO,19.721.550.040.351
1003,-17.88,-51.71,JATAI - GO,JATAI,GO,43.140.744.482.268
1004,-16.17,-50.95,JAUPACI - GO,JAUPACI,GO,19.234.599.136.952
1005,-15.95,-49.37,JESUPOLIS - GO,JESUPOLIS,GO,13.934.708.114.295
1006,-17.8,-49.61,JOVIANIA - GO,JOVIANIA,GO,44.389.298.739.148
1007,-15.86,-50.86,JUSSARA - GO,JUSSARA,GO,13.017.385.419.303
1008,-16.61,-48.74,LEOPOLDO DE BULHOES - GO,LEOPOLDO DE BULHOES,GO,51.459.455.965.062
1009,-16.25,-47.95,LUZIANIA - GO,LUZIANIA,GO,67.345.744.197.175
1010,-17.29,-49.49,MAIRIPOTABA - GO,MAIRIPOTABA,GO,18.184.495.652.143
1011,-14.48,-46.11,MAMBAI - GO,MAMBAI,GO,27.556.227.067.631
1012,-14.01,-49.17,MARA ROSA - GO,MARA ROSA,GO,80.083.002.535.559
1013,-17.98,-48.64,MARZAGAO - GO,MARZAGAO,GO,12.435.046.438.174
1014,-15.44,-50.74,MATRINCHA - GO,MATRINCHA,GO,28.682.465.309.533
1015,-17.97,-50.33,MAURILANDIA - GO,MAURILANDIA,GO,58.511.927.783.333
1016,-15.05,-48.16,MIMOSO DE GOIAS - GO,MIMOSO DE GOIAS,GO,17.861.373.607.246
1017,-13.53,-48.22,MINACU - GO,MINACU,GO,22.986.930.894.541
1018,-17.56,-52.55,MINEIROS - GO,MINEIROS,GO,23.532.610.467.622
1019,-16.54,-50.73,MOIPORA - GO,MOIPORA,GO,13.288.896.084.115
1020,-13.25,-46.9,MONTE ALEGRE DE GOIAS - GO,MONTE ALEGRE DE GOIAS,GO,41.803.515.920.214
1021,-16,-51.39,MONTES CLAROS DE GOIAS - GO,MONTES CLAROS DE GOIAS,GO,5.252.332.919.635
1022,-17.44,-51.17,MONTIVIDIU - GO,MONTIVIDIU,GO,40.093.509.002.629
1023,-13.11,-48.6,MONTIVIDIU DO NORTE - GO,MONTIVIDIU DO NORTE,GO,15.690.307.473.019
1024,-17.73,-49.1,MORRINHOS - GO,MORRINHOS,GO,21.891.780.041.995
1025,-15.32,-50.05,MORRO AGUDO DE GOIAS - GO,MORRO AGUDO DE GOIAS,GO,14.802.958.997.188
1026,-16.12,-50.21,MOSSAMEDES - GO,MOSSAMEDES,GO,43.353.319.242.746
1027,-14.74,-50.57,MOZARLANDIA - GO,MOZARLANDIA,GO,62.866.953.293.409
1028,-13.77,-50.28,MUNDO NOVO - GO,MUNDO NOVO,GO,37.238.251.826.977
1029,-13.73,-49.27,MUTUNOPOLIS - GO,MUTUNOPOLIS,GO,27.203.730.705.687
1030,-16.58,-49.88,NAZARIO - GO,NAZARIO,GO,42.165.512.724.417
1031,-16.4,-49.21,NEROPOLIS - GO,NEROPOLIS,GO,99.977.252.070.596
1032,-14.47,-48.46,NIQUELANDIA - GO,NIQUELANDIA,GO,21.700.292.396.705
1033,-15.02,-49.89,NOVA AMERICA - GO,NOVA AMERICA,GO,13.435.573.123.421
1034,-18.05,-48.25,NOVA AURORA - GO,NOVA AURORA,GO,123.272.466.813
1035,-14.09,-50.32,NOVA CRIXAS - GO,NOVA CRIXAS,GO,66.564.175.725.347
1036,-15.14,-49.57,NOVA GLORIA - GO,NOVA GLORIA,GO,57.307.215.862.959
1037,-14.28,-49.38,NOVA IGUACU DE GOIAS - GO,NOVA IGUACU DE GOIAS,GO,18.226.043.031.836
1038,-13.74,-46.88,NOVA ROMA - GO,NOVA ROMA,GO,25.292.121.144.677
1039,-16.37,-49.32,NOVA VENEZA - GO,NOVA VENEZA,GO,40.640.948.762.577
1040,-16.03,-50.71,NOVO BRASIL - GO,NOVO BRASIL,GO,30.836.975.824.581
1041,-16.05,-48.03,NOVO GAMA - GO,NOVO GAMA,GO,41.171.885.446.469
1042,-13.24,-49.5,NOVO PLANALTO - GO,NOVO PLANALTO,GO,23.295.597.514.947
1043,-17.03,-48.29,ORIZONA - GO,ORIZONA,GO,8.287.016.343.925
1044,-16.22,-49.19,OURO VERDE DE GOIAS - GO,OURO VERDE DE GOIAS,GO,29.259.065.579.373
1045,-18.23,-47.83,OUVIDOR - GO,OUVIDOR,GO,26.703.508.857.718
1046,-15.16,-48.28,PADRE BERNARDO - GO,PADRE BERNARDO,GO,10.709.985.058.263
1047,-16.73,-51.53,PALESTINA DE GOIAS - GO,PALESTINA DE GOIAS,GO,23.230.405.352.624
1048,-16.8,-49.92,PALMEIRAS DE GOIAS - GO,PALMEIRAS DE GOIAS,GO,11.215.333.391.578
1049,-17.32,-48.42,PALMELO - GO,PALMELO,GO,13.963.862.243.892
1050,-16.79,-50.16,PALMINOPOLIS - GO,PALMINOPOLIS,GO,21.606.021.239.058
1051,-18.17,-49.35,PANAMA - GO,PANAMA,GO,17.947.271.894.979
1052,-18.91,-50.65,PARANAIGUARA - GO,PARANAIGUARA,GO,51.789.513.373.327
1053,-16.94,-50.44,PARAUNA - GO,PARAUNA,GO,77.560.866.899.451
1054,-17.52,-52.06,PEROLANDIA - GO,PEROLANDIA,GO,11.291.820.431.631
1055,-16.09,-49.33,PETROLINA DE GOIAS - GO,PETROLINA DE GOIAS,GO,65.436.784.834.576
1056,-14.76,-49.57,PILAR DE GOIAS - GO,PILAR DE GOIAS,GO,23.414.291.841.022
1057,-17.3,-49.01,PIRACANJUBA - GO,PIRACANJUBA,GO,14.786.691.895.448
1058,-16.42,-51.82,PIRANHAS - GO,PIRANHAS,GO,85.367.623.634.521
1059,-15.85,-48.95,PIRENOPOLIS - GO,PIRENOPOLIS,GO,13.555.702.843.574
1060,-17.3,-48.28,PIRES DO RIO - GO,PIRES DO RIO,GO,15.171.776.058.468
1061,-15.45,-47.61,PLANALTINA - GO,PLANALTINA,GO,37.384.560.199.347
1062,-17.52,-49.44,PONTALINA - GO,PONTALINA,GO,10.844.185.450.651
1063,-13.44,-49.14,PORANGATU - GO,PORANGATU,GO,25.784.003.733.705
1064,-17.81,-50.16,PORTEIRAO - GO,PORTEIRAO,GO,16.994.281.677.814
1065,-17.35,-52.67,PORTELANDIA - GO,PORTELANDIA,GO,19.304.175.028.678
1066,-14.09,-46.36,POSSE - GO,POSSE,GO,16.276.522.644.785
1067,-17.25,-49.24,PROFESSOR JAMIL - GO,PROFESSOR JAMIL,GO,22.942.613.021.296
1068,-18.44,-50.45,QUIRINOPOLIS - GO,QUIRINOPOLIS,GO,22.518.126.812.018
1069,-15.31,-49.58,RIALMA - GO,RIALMA,GO,67.520.158.512.457
1070,-15.44,-49.51,RIANAPOLIS - GO,RIANAPOLIS,GO,30.969.670.016.234
1071,-17.77,-48.77,RIO QUENTE - GO,RIO QUENTE,GO,11.958.040.307.492
1072,-17.79,-50.92,RIO VERDE - GO,RIO VERDE,GO,64.928.052.716.609
1073,-15.16,-49.8,RUBIATABA - GO,RUBIATABA,GO,10.862.888.725.845
1074,-16.19,-50.31,SANCLERLANDIA - GO,SANCLERLANDIA,GO,52.130.596.790.865
1075,-16.57,-49.69,SANTA BARBARA DE GOIAS - GO,SANTA BARBARA DE GOIAS,GO,30.587.391.812.017
1076,-17.31,-48.48,SANTA CRUZ DE GOIAS - GO,SANTA CRUZ DE GOIAS,GO,20.225.606.375.157
1077,-15.76,-51.1,SANTA FE DE GOIAS - GO,SANTA FE DE GOIAS,GO,24.062.926.813.357
1078,-17.81,-50.59,SANTA HELENA DE GOIAS - GO,SANTA HELENA DE GOIAS,GO,22.295.726.103.906
1079,-15.29,-49.42,SANTA ISABEL - GO,SANTA ISABEL,GO,24.491.322.075.662
1080,-17.32,-53.2,SANTA RITA DO ARAGUAIA - GO,SANTA RITA DO ARAGUAIA,GO,33.073.016.997.585
1081,-15.13,-49.12,SANTA RITA DO NOVO DESTINO - GO,SANTA RITA DO NOVO DESTINO,GO,19.119.224.306.479
1082,-16.08,-49.49,SANTA ROSA DE GOIAS - GO,SANTA ROSA DE GOIAS,GO,2.439.061.936.242
1083,-13.71,-49.01,SANTA TEREZA DE GOIAS - GO,SANTA TEREZA DE GOIAS,GO,3.435.428.755.646
1084,-14.43,-49.7,SANTA TEREZINHA DE GOIAS - GO,SANTA TEREZINHA DE GOIAS,GO,90.115.209.810.464
1085,-17.56,-50.63,SANTO ANTONIO DA BARRA - GO,SANTO ANTONIO DA BARRA,GO,23.795.310.252.163
1086,-16.48,-49.31,SANTO ANTONIO DE GOIAS - GO,SANTO ANTONIO DE GOIAS,GO,16.566.692.029.825
1087,-15.94,-48.25,SANTO ANTONIO DO DESCOBERTO - GO,SANTO ANTONIO DO DESCOBERTO,GO,30.419.389.179.697
1088,-13.39,-46.31,SAO DOMINGOS - GO,SAO DOMINGOS,GO,59.034.556.027.204
1089,-15.93,-49.26,SAO FRANCISCO DE GOIAS - GO,SAO FRANCISCO DE GOIAS,GO,41.132.452.713.322
1090,-16.81,-50.41,SAO JOAO DA PARAUNA - GO,SAO JOAO DA PARAUNA,GO,39.117.868.300.154
1091,-14.7,-47.52,SAO JOAO D'ALIANCA - GO,SAO JOAO D'ALIANCA,GO,13.689.702.433.754
1092,-16.52,-50.37,SAO LUIS DE MONTES BELOS - GO,SAO LUIS DE MONTES BELOS,GO,1.727.790.571.139
1093,-14.86,-49.32,SAO LUIZ DO NORTE - GO,SAO LUIZ DO NORTE,GO,2.302.611.326.729
1094,-13.27,-50.16,SAO MIGUEL DO ARAGUAIA - GO,SAO MIGUEL DO ARAGUAIA,GO,14.550.318.705.447
1095,-17.05,-48.66,SAO MIGUEL DO PASSA QUATRO - GO,SAO MIGUEL DO PASSA QUATRO,GO,19.383.094.488.925
1096,-15.35,-49.81,SAO PATRICIO - GO,SAO PATRICIO,GO,1.105.645.734.089
1097,-18.99,-50.54,SAO SIMAO - GO,SAO SIMAO,GO,79.764.400.436.304
1098,-16.7,-49.09,SENADOR CANEDO - GO,SENADOR CANEDO,GO,278.982.326.125
1099,-18.3,-51.96,SERRANOPOLIS - GO,SERRANOPOLIS,GO,43.355.207.085.414
1100,-16.65,-48.6,SILVANIA - GO,SILVANIA,GO,11.418.084.125.631
1101,-14.47,-46.48,SIMOLANDIA - GO,SIMOLANDIA,GO,4.174.110.502.239
1102,-14.8,-46.25,SITIO D'ABADIA - GO,SITIO D'ABADIA,GO,19.562.066.401.582
1103,-16.05,-49.6,TAQUARAL DE GOIAS - GO,TAQUARAL DE GOIAS,GO,25.827.677.049.697
1104,-13.77,-47.26,TERESINA DE GOIAS - GO,TERESINA DE GOIAS,GO,13.254.306.759.494
1105,-16.39,-49.08,TEREZOPOLIS DE GOIAS - GO,TEREZOPOLIS DE GOIAS,GO,27.017.243.724.505
1106,-18.35,-47.78,TRES RANCHOS - GO,TRES RANCHOS,GO,18.539.342.241.482
1107,-16.64,-49.48,TRINDADE - GO,TRINDADE,GO,43.220.768.386.961
1108,-13.5,-48.74,TROMBAS - GO,TROMBAS,GO,21.945.055.502.506
1109,-16.61,-50.13,TURVANIA - GO,TURVANIA,GO,33.004.940.699.791
1110,-17.85,-50.3,TURVELANDIA - GO,TURVELANDIA,GO,19.188.693.019.339
1111,-14.28,-49.92,UIRAPURU - GO,UIRAPURU,GO,19.477.095.576.288
1112,-14.52,-49.14,URUACU - GO,URUACU,GO,21.331.649.413.574
1113,-15.49,-49.68,URUANA - GO,URUANA,GO,10.041.149.204.594
1114,-17.46,-48.2,URUTAI - GO,URUTAI,GO,17.749.365.632.319
1115,-16.06,-47.97,VALPARAISO DE GOIAS - GO,VALPARAISO DE GOIAS,GO,48.901.107.955.797
1116,-17.04,-49.63,VARJAO - GO,VARJAO,GO,22.240.804.461.395
1117,-16.74,-48.51,VIANOPOLIS - GO,VIANOPOLIS,GO,66.363.546.751.076
1118,-17.73,-49.8,VICENTINOPOLIS - GO,VICENTINOPOLIS,GO,38.738.625.198.652
1119,-15.03,-47.05,VILA BOA - GO,VILA BOA,GO,17.918.836.083.039
1120,-15.45,-48.88,VILA PROPICIO - GO,VILA PROPICIO,GO,22.706.463.455.095
1121,-4.94,-47.5,ACAILANDIA - MA,ACAILANDIA,MA,47.044.872.376.269
1122,-4.13,-43.32,AFONSO CUNHA - MA,AFONSO CUNHA,MA,28.367.579.991.405
1123,-2.84,-42.11,AGUA DOCE DO MARANHAO - MA,AGUA DOCE DO MARANHAO,MA,59.521.730.067.463
1124,-2.4,-44.41,ALCANTARA - MA,ALCANTARA,MA,12.292.886.771.217
1125,-4.62,-43.47,ALDEIAS ALTAS - MA,ALDEIAS ALTAS,MA,11.941.797.368.599
1126,-4.16,-45.47,ALTAMIRA DO MARANHAO - MA,ALTAMIRA DO MARANHAO,MA,42.128.967.094.702
1127,-4.21,-44.44,ALTO ALEGRE DO MARANHAO - MA,ALTO ALEGRE DO MARANHAO,MA,10.346.588.330.976
1128,-3.69,-45.9,ALTO ALEGRE DO PINDARE - MA,ALTO ALEGRE DO PINDARE,MA,15.877.840.858.238
1129,-9.11,-45.93,ALTO PARNAIBA - MA,ALTO PARNAIBA,MA,71.778.937.244.638
1130,-1.56,-45.93,AMAPA DO MARANHAO - MA,AMAPA DO MARANHAO,MA,30.850.415.506.618
1131,-5.56,-46.74,AMARANTE DO MARANHAO - MA,AMARANTE DO MARANHAO,MA,2.023.326.689.413
1132,-3.26,-44.62,ANAJATUBA - MA,ANAJATUBA,MA,13.104.952.878.118
1133,-3.67,-43.11,ANAPURUS - MA,ANAPURUS,MA,63.010.009.994.849
1134,-1.46,-45.1,APICUM-ACU - MA,APICUM-ACU,MA,73.009.323.568.548
1135,-2.95,-45.66,ARAGUANA - MA,ARAGUANA,MA,65.747.543.876.151
1136,-2.89,-41.9,ARAIOSES - MA,ARAIOSES,MA,23.171.112.298.925
1137,-4.73,-45.9,ARAME - MA,ARAME,MA,18.109.507.768.977
1138,-3.45,-44.78,ARARI - MA,ARARI,MA,16.063.290.345.673
1139,-2.83,-44.05,AXIXA - MA,AXIXA,MA,61.565.157.765.467
1140,-4.22,-44.78,BACABAL - MA,BACABAL,MA,55.970.961.934.789
1141,-2.97,-44.31,BACABEIRA - MA,BACABEIRA,MA,66.534.212.632.049
1142,-1.7,-45.13,BACURI - MA,BACURI,MA,70.527.689.260.503
1143,-2.7,-44.73,BACURITUBA - MA,BACURITUBA,MA,28.043.260.452.256
1144,-7.53,-46.03,BALSAS - MA,BALSAS,MA,3.152.393.044.835
1145,-6.75,-43.02,BARAO DE GRAJAU - MA,BARAO DE GRAJAU,MA,90.065.537.972.027
1146,-5.5,-45.24,BARRA DO CORDA - MA,BARRA DO CORDA,MA,44.631.152.383.737
1147,-2.74,-42.82,BARREIRINHAS - MA,BARREIRINHAS,MA,19.957.031.156.179
1148,-3.73,-45.31,BELA VISTA DO MARANHAO - MA,BELA VISTA DO MARANHAO,MA,50.166.046.201.711
1149,-3.15,-43.51,BELAGUA - MA,BELAGUA,MA,40.389.777.836.963
1150,-7.22,-44.55,BENEDITO LEITE - MA,BENEDITO LEITE,MA,38.840.800.469.172
1151,-2.44,-44.78,BEQUIMAO - MA,BEQUIMAO,MA,12.768.842.365.595
1152,-4.58,-44.76,BERNARDO DO MEARIM - MA,BERNARDO DO MEARIM,MA,27.487.221.012.226
1153,-1.78,-46.3,BOA VISTA DO GURUPI - MA,BOA VISTA DO GURUPI,MA,25.014.818.252.754
1154,-3.56,-45.99,BOM JARDIM - MA,BOM JARDIM,MA,22.472.597.790.469
1155,-4.42,-46.76,BOM JESUS DAS SELVAS - MA,BOM JESUS DAS SELVAS,MA,90.761.041.427.554
1156,-4.22,-45.03,BOM LUGAR - MA,BOM LUGAR,MA,60.289.766.696.725
1157,-3.68,-42.75,BREJO - MA,BREJO,MA,1.538.621.051.189
1158,-4.08,-45.49,BREJO DE AREIA - MA,BREJO DE AREIA,MA,67.445.948.811.699
1159,-3.94,-42.92,BURITI - MA,BURITI,MA,16.114.334.693.529
1160,-5.83,-43.83,BURITI BRAVO - MA,BURITI BRAVO,MA,14.323.278.254.779
1161,-4.34,-46.4,BURITICUPU - MA,BURITICUPU,MA,19.190.064.288.635
1162,-5.59,-47.01,BURITIRANA - MA,BURITIRANA,MA,6.897.243.683.044
1163,-2.92,-44.05,CACHOEIRA GRANDE - MA,CACHOEIRA GRANDE,MA,41.051.895.422.575
1164,-2.88,-44.67,CAJAPIO - MA,CAJAPIO,MA,57.571.715.895.338
1165,-3.32,-45.01,CAJARI - MA,CAJARI,MA,10.372.786.826.096
1166,-6.17,-47.36,CAMPESTRE DO MARANHAO - MA,CAMPESTRE DO MARANHAO,MA,58.243.070.804.694
1167,-1.44,-45.71,CANDIDO MENDES - MA,CANDIDO MENDES,MA,94.542.753.485.984
1168,-3.63,-44.37,CANTANHEDE - MA,CANTANHEDE,MA,91.237.896.396.892
1169,-4.72,-44.32,CAPINZAL DO NORTE - MA,CAPINZAL DO NORTE,MA,66.002.214.639.297
1170,-7.33,-47.46,CAROLINA - MA,CAROLINA,MA,17.134.977.538.216
1171,-1.19,-46.02,CARUTAPERA - MA,CARUTAPERA,MA,10.565.920.694.504
1172,-4.85,-43.35,CAXIAS - MA,CAXIAS,MA,8.641.040.664.171
1173,-2,-44.53,CEDRAL - MA,CEDRAL,MA,52.784.879.416.879
1174,-2.19,-44.82,CENTRAL DO MARANHAO - MA,CENTRAL DO MARANHAO,MA,33.404.689.560.649
1175,-2.36,-46,CENTRO DO GUILHERME - MA,CENTRO DO GUILHERME,MA,37.649.900.997.335
1176,-2.1,-46.12,CENTRO NOVO DO MARANHAO - MA,CENTRO NOVO DO MARANHAO,MA,82.519.806.395.883
1177,-3.74,-43.36,CHAPADINHA - MA,CHAPADINHA,MA,40.903.903.491.628
1178,-5.17,-47.78,CIDELANDIA - MA,CIDELANDIA,MA,65.903.861.485.432
1179,-4.45,-43.88,CODO - MA,CODO,MA,67.232.276.304.017
1180,-4.25,-43.01,COELHO NETO - MA,COELHO NETO,MA,28.941.729.100.535
1181,-6.02,-44.24,COLINAS - MA,COLINAS,MA,1.905.265.260.438
1182,-3.83,-44.89,CONCEICAO DO LAGO-ACU - MA,CONCEICAO DO LAGO-ACU,MA,87.022.499.893.462
1183,-4.13,-44.12,COROATA - MA,COROATA,MA,31.681.092.854.743
1184,-1.82,-44.86,CURURUPU - MA,CURURUPU,MA,16.457.672.278.583
1185,-5.55,-47.42,DAVINOPOLIS - MA,DAVINOPOLIS,MA,84.934.658.313.161
1186,-5.03,-44.43,DOM PEDRO - MA,DOM PEDRO,MA,13.659.167.869.172
1187,-4.15,-42.94,DUQUE BACELAR - MA,DUQUE BACELAR,MA,53.529.060.258.265
1188,-4.88,-44.68,ESPERANTINOPOLIS - MA,ESPERANTINOPOLIS,MA,11.428.976.029.722
1189,-6.56,-47.45,ESTREITO - MA,ESTREITO,MA,13.217.671.022.148
1190,-6.96,-46.68,FEIRA NOVA DO MARANHAO - MA,FEIRA NOVA DO MARANHAO,MA,48.632.580.405.579
1191,-6.15,-44.89,FERNANDO FALCAO - MA,FERNANDO FALCAO,MA,28.860.327.743.143
1192,-6.43,-46.19,FORMOSA DA SERRA NEGRA - MA,FORMOSA DA SERRA NEGRA,MA,55.864.465.035.356
1193,-6.96,-46.17,FORTALEZA DOS NOGUEIRAS - MA,FORTALEZA DOS NOGUEIRAS,MA,64.634.363.320.401
1194,-5.73,-44.15,FORTUNA - MA,FORTUNA,MA,99.949.785.184.226
1195,-1.4,-45.78,GODOFREDO VIANA - MA,GODOFREDO VIANA,MA,53.905.523.734.236
1196,-5.15,-44.29,GONCALVES DIAS - MA,GONCALVES DIAS,MA,1.035.100.705.908
1197,-5.02,-44.27,GOVERNADOR ARCHER - MA,GOVERNADOR ARCHER,MA,59.717.004.724.813
1198,-5.74,-47.36,GOVERNADOR EDISON LOBAO - MA,GOVERNADOR EDISON LOBAO,MA,50.108.780.318.344
1199,-5.32,-44.24,GOVERNADOR EUGENIO BARROS - MA,GOVERNADOR EUGENIO BARROS,MA,81.098.021.706.603
1200,-5.46,-44.07,GOVERNADOR LUIZ ROCHA - MA,GOVERNADOR LUIZ ROCHA,MA,49.604.762.208.666
1201,-3.42,-45.67,GOVERNADOR NEWTON BELLO - MA,GOVERNADOR NEWTON BELLO,MA,74.091.564.386.379
1202,-2.12,-45.88,GOVERNADOR NUNES FREIRE - MA,GOVERNADOR NUNES FREIRE,MA,12.533.697.173.414
1203,-5.41,-44.33,GRACA ARANHA - MA,GRACA ARANHA,MA,39.110.014.839.096
1204,-5.81,-46.13,GRAJAU - MA,GRAJAU,MA,25.076.939.979.361
1205,-2.13,-44.6,GUIMARAES - MA,GUIMARAES,MA,83.812.345.180.656
1206,-2.59,-43.46,HUMBERTO DE CAMPOS - MA,HUMBERTO DE CAMPOS,MA,11.661.251.297.941
1207,-2.77,-44.06,ICATU - MA,ICATU,MA,12.882.532.999.116
1208,-3.66,-45.22,IGARAPE DO MEIO - MA,IGARAPE DO MEIO,MA,56.967.141.712.391
1209,-4.58,-44.85,IGARAPE GRANDE - MA,IGARAPE GRANDE,MA,70.052.874.284.225
1210,-5.52,-47.47,IMPERATRIZ - MA,IMPERATRIZ,MA,13.603.690.465.117
1211,-5.14,-45.79,ITAIPAVA DO GRAJAU - MA,ITAIPAVA DO GRAJAU,MA,53.715.903.977.057
1212,-3.39,-44.35,ITAPECURU MIRIM - MA,ITAPECURU MIRIM,MA,32.334.350.156.003
1213,-4.45,-47.52,ITINGA DO MARANHAO - MA,ITINGA DO MARANHAO,MA,11.680.971.063.185
1214,-5.81,-44.22,JATOBA - MA,JATOBA,MA,43.855.619.254.134
1215,-5.37,-45.63,JENIPAPO DOS VIEIRAS - MA,JENIPAPO DOS VIEIRAS,MA,55.296.327.983.895
1216,-5.44,-47.4,JOAO LISBOA - MA,JOAO LISBOA,MA,14.262.516.565.834
1217,-4.96,-44.7,JOSELANDIA - MA,JOSELANDIA,MA,88.479.266.424.198
1218,-1.84,-46.09,JUNCO DO MARANHAO - MA,JUNCO DO MARANHAO,MA,35.539.461.496.789
1219,-4.28,-45.24,LAGO DA PEDRA - MA,LAGO DA PEDRA,MA,26.141.091.629.839
1220,-4.44,-44.93,LAGO DO JUNCO - MA,LAGO DO JUNCO,MA,58.154.255.804.315
1221,-4.49,-44.89,LAGO DOS RODRIGUES - MA,LAGO DOS RODRIGUES,MA,51.051.325.420.048
1222,-3.95,-44.82,LAGO VERDE - MA,LAGO VERDE,MA,81.301.429.113.738
1223,-6.04,-43.52,LAGOA DO MATO - MA,LAGOA DO MATO,MA,55.157.053.537.767
1224,-4.81,-45.33,LAGOA GRANDE DO MARANHAO - MA,LAGOA GRANDE DO MARANHAO,MA,58.004.386.187.715
1225,-6.18,-47.03,LAJEADO NOVO - MA,LAJEADO NOVO,MA,31.794.963.048.025
1226,-4.52,-44.46,LIMA CAMPOS - MA,LIMA CAMPOS,MA,74.743.637.814.943
1227,-7.08,-45.14,LORETO - MA,LORETO,MA,64.503.104.413.014
1228,-1.26,-45.87,LUIS DOMINGUES - MA,LUIS DOMINGUES,MA,44.316.498.729.843
1229,-3.39,-42.2,MAGALHAES DE ALMEIDA - MA,MAGALHAES DE ALMEIDA,MA,80.441.464.949.575
1230,-2.04,-45.95,MARACACUME - MA,MARACACUME,MA,82.213.911.377.232
1231,-4.59,-45.57,MARAJA DO SENA - MA,MARAJA DO SENA,MA,48.055.063.037.716
1232,-2.31,-45.84,MARANHAOZINHO - MA,MARANHAOZINHO,MA,46.827.918.715.564
1233,-3.62,-43.11,MATA ROMA - MA,MATA ROMA,MA,73.442.642.336.773
1234,-3.1,-45.03,MATINHA - MA,MATINHA,MA,10.743.199.534.304
1235,-5.51,-43.19,MATOES - MA,MATOES,MA,15.681.405.747.873
1236,-3.63,-44.55,MATOES DO NORTE - MA,MATOES DO NORTE,MA,36.566.243.185.494
1237,-3.58,-42.6,MILAGRES DO MARANHAO - MA,MILAGRES DO MARANHAO,MA,40.235.429.129.932
1238,-6.37,-44.36,MIRADOR - MA,MIRADOR,MA,11.186.096.859.565
1239,-3.56,-44.58,MIRANDA DO NORTE - MA,MIRANDA DO NORTE,MA,1.007.942.375.585
1240,-2.06,-44.78,MIRINZAL - MA,MIRINZAL,MA,87.909.837.903.305
1241,-3.49,-45.25,MONCAO - MA,MONCAO,MA,14.923.576.649.697
1242,-5.83,-47.06,MONTES ALTOS - MA,MONTES ALTOS,MA,66.504.536.431.729
1243,-2.86,-44.03,MORROS - MA,MORROS,MA,85.540.644.923.755
1244,-3.46,-43.9,NINA RODRIGUES - MA,NINA RODRIGUES,MA,46.677.189.837.694
1245,-7.11,-46.25,NOVA COLINAS - MA,NOVA COLINAS,MA,22.288.051.683.014
1246,-6.73,-44.04,NOVA IORQUE - MA,NOVA IORQUE,MA,28.416.067.834.484
1247,-2.84,-45.69,NOVA OLINDA DO MARANHAO - MA,NOVA OLINDA DO MARANHAO,MA,1.054.602.347.718
1248,-3.94,-45.11,OLHO D'AGUA DAS CUNHAS - MA,OLHO D'AGUA DAS CUNHAS,MA,11.300.983.365.084
1249,-2.99,-44.99,OLINDA NOVA DO MARANHAO - MA,OLINDA NOVA DO MARANHAO,MA,73.321.222.698.591
1250,-2.53,-44.1,PACO DO LUMIAR - MA,PACO DO LUMIAR,MA,3.816.656.554.288
1251,-2.64,-44.89,PALMEIRANDIA - MA,PALMEIRANDIA,MA,10.690.378.379.527
1252,-6.43,-43.98,PARAIBANO - MA,PARAIBANO,MA,11.277.797.218.778
1253,-5.68,-43.09,PARNARAMA - MA,PARNARAMA,MA,19.728.415.200.157
1254,-6.18,-43.78,PASSAGEM FRANCA - MA,PASSAGEM FRANCA,MA,10.579.584.274.387
1255,-6.6,-44.07,PASTOS BONS - MA,PASTOS BONS,MA,89.502.748.978.277
1256,-2.71,-42.53,PAULINO NEVES - MA,PAULINO NEVES,MA,67.789.618.859.873
1257,-4.18,-45.2,PAULO RAMOS - MA,PAULO RAMOS,MA,12.819.041.821.865
1258,-4.56,-44.59,PEDREIRAS - MA,PEDREIRAS,MA,25.586.121.755.097
1259,-2.97,-45.34,PEDRO DO ROSARIO - MA,PEDRO DO ROSARIO,MA,67.540.524.841.526
1260,-3.29,-45.17,PENALVA - MA,PENALVA,MA,19.014.080.533.615
1261,-2.57,-44.85,PERI MIRIM - MA,PERI MIRIM,MA,10.974.112.758.316
1262,-4.38,-44.33,PERITORO - MA,PERITORO,MA,94.811.543.135.065
1263,-3.6,-45.34,PINDARE MIRIM - MA,PINDARE MIRIM,MA,1.744.353.208.534
1264,-2.52,-45.08,PINHEIRO - MA,PINHEIRO,MA,3.963.781.902.156
1265,-3.87,-45.28,PIO XII - MA,PIO XII,MA,14.373.091.188.246
1266,-3.72,-44.22,PIRAPEMAS - MA,PIRAPEMAS,MA,15.044.054.654.796
1267,-4.67,-44.89,POCAO DE PEDRAS - MA,POCAO DE PEDRAS,MA,14.228.985.263.355
1268,-6.33,-47.39,PORTO FRANCO - MA,PORTO FRANCO,MA,96.410.778.620.685
1269,-1.89,-44.6,PORTO RICO DO MARANHAO - MA,PORTO RICO DO MARANHAO,MA,43.844.035.061.974
1270,-5.29,-44.49,PRESIDENTE DUTRA - MA,PRESIDENTE DUTRA,MA,23.849.740.585.485
1271,-2.92,-44.06,PRESIDENTE JUSCELINO - MA,PRESIDENTE JUSCELINO,MA,50.654.838.820.809
1272,-2.38,-45.82,PRESIDENTE MEDICI - MA,PRESIDENTE MEDICI,MA,3.249.709.418.436
1273,-2.59,-45.36,PRESIDENTE SARNEY - MA,PRESIDENTE SARNEY,MA,80.100.045.473.435
1274,-3.4,-44.02,PRESIDENTE VARGAS - MA,PRESIDENTE VARGAS,MA,56.934.761.613.677
1275,-2.51,-43.43,PRIMEIRA CRUZ - MA,PRIMEIRA CRUZ,MA,60.109.636.338.798
1276,-2.42,-44.1,RAPOSA - MA,RAPOSA,MA,9.178.135.404.294
1277,-7.36,-46.61,RIACHAO - MA,RIACHAO,MA,12.136.611.497.315
1278,-5.93,-47.38,RIBAMAR FIQUENE - MA,RIBAMAR FIQUENE,MA,36.445.736.665.305
1279,-2.93,-44.23,ROSARIO - MA,ROSARIO,MA,1.961.346.309.655
1280,-7.14,-45.34,SAMBAIBA - MA,SAMBAIBA,MA,36.500.606.367.794
1281,-5.5,-44.56,SANTA FILOMENA DO MARANHAO - MA,SANTA FILOMENA DO MARANHAO,MA,21.826.269.240.591
1282,-2.23,-45.3,SANTA HELENA - MA,SANTA HELENA,MA,18.219.443.356.117
1283,-3.66,-45.38,SANTA INES - MA,SANTA INES,MA,43.284.265.317.018
1284,-4.06,-45.69,SANTA LUZIA - MA,SANTA LUZIA,MA,35.628.776.796.178
1285,-2.62,-45.77,SANTA LUZIA DO PARUA - MA,SANTA LUZIA DO PARUA,MA,13.883.698.106.418
1286,-3.51,-42.54,SANTA QUITERIA DO MARANHAO - MA,SANTA QUITERIA DO MARANHAO,MA,11.839.917.869.144
1287,-3.14,-44.32,SANTA RITA - MA,SANTA RITA,MA,12.871.983.426.474
1288,-3.11,-42.41,SANTANA DO MARANHAO - MA,SANTANA DO MARANHAO,MA,45.659.343.239.198
1289,-2.5,-43.25,SANTO AMARO DO MARANHAO - MA,SANTO AMARO DO MARANHAO,MA,59.229.080.787.873
1290,-4.86,-44.36,SANTO ANTONIO DOS LOPES - MA,SANTO ANTONIO DOS LOPES,MA,10.031.832.879.835
1291,-3.33,-43.52,SAO BENEDITO DO RIO PRETO - MA,SAO BENEDITO DO RIO PRETO,MA,92.237.955.364.426
1292,-2.69,-44.82,SAO BENTO - MA,SAO BENTO,MA,20.894.203.241.505
1293,-3.36,-42.41,SAO BERNARDO - MA,SAO BERNARDO,MA,12.840.627.515.927
1294,-6.81,-44.64,SAO DOMINGOS DO AZEITAO - MA,SAO DOMINGOS DO AZEITAO,MA,3.051.646.132.535
1295,-5.57,-44.38,SAO DOMINGOS DO MARANHAO - MA,SAO DOMINGOS DO MARANHAO,MA,2.124.025.662.253
1296,-7.08,-44.81,SAO FELIX DE BALSAS - MA,SAO FELIX DE BALSAS,MA,36.274.708.556.492
1297,-5.12,-47.38,SAO FRANCISCO DO BREJAO - MA,SAO FRANCISCO DO BREJAO,MA,40.212.143.875.972
1298,-6.25,-42.85,SAO FRANCISCO DO MARANHAO - MA,SAO FRANCISCO DO MARANHAO,MA,84.388.610.748.742
1299,-2.95,-44.8,SAO JOAO BATISTA - MA,SAO JOAO BATISTA,MA,12.030.115.374.455
1300,-3.55,-46.25,SAO JOAO DO CARU - MA,SAO JOAO DO CARU,MA,79.228.555.270.282
1301,-6.46,-47.05,SAO JOAO DO PARAISO - MA,SAO JOAO DO PARAISO,MA,53.986.831.439.818
1302,-5.11,-43.81,SAO JOAO DO SOTER - MA,SAO JOAO DO SOTER,MA,78.391.750.203.679
1303,-6.49,-43.7,SAO JOAO DOS PATOS - MA,SAO JOAO DOS PATOS,MA,15.050.552.865.949
1304,-2.56,-44.05,SAO JOSE DE RIBAMAR - MA,SAO JOSE DE RIBAMAR,MA,58.011.898.783.706
1305,-5.05,-44.58,SAO JOSE DOS BASILIOS - MA,SAO JOSE DOS BASILIOS,MA,46.781.781.707.135
1306,-2.53,-44.3,SAO LUIS - MA,SAO LUIS,MA,780833
1307,-4.38,-44.67,SAO LUIS GONZAGA DO MARANHAO - MA,SAO LUIS GONZAGA DO MARANHAO,MA,16.349.661.467.677
1308,-4.04,-44.47,SAO MATEUS DO MARANHAO - MA,SAO MATEUS DO MARANHAO,MA,21.342.944.007.195
1309,-5.08,-48.42,SAO PEDRO DA AGUA BRANCA - MA,SAO PEDRO DA AGUA BRANCA,MA,68.571.120.327.617
1310,-6.82,-46.53,SAO PEDRO DOS CRENTES - MA,SAO PEDRO DOS CRENTES,MA,24.735.361.648.727
1311,-7.02,-45.48,SAO RAIMUNDO DAS MANGABEIRAS - MA,SAO RAIMUNDO DAS MANGABEIRAS,MA,93.582.086.451.696
1312,-5.1,-45.07,SAO RAIMUNDO DO DOCA BEZERRA - MA,SAO RAIMUNDO DO DOCA BEZERRA,MA,39.239.797.823.415
1313,-5.02,-44.99,SAO ROBERTO - MA,SAO ROBERTO,MA,23.201.930.345.213
1314,-2.89,-44.88,SAO VICENTE FERRER - MA,SAO VICENTE FERRER,MA,10.629.649.798.462
1315,-3.84,-45.16,SATUBINHA - MA,SATUBINHA,MA,46.428.834.133.245
1316,-5.25,-44.05,SENADOR ALEXANDRE COSTA - MA,SENADOR ALEXANDRE COSTA,MA,60.479.014.666.167
1317,-5.44,-47.29,SENADOR LA ROCQUE - MA,SENADOR LA ROCQUE,MA,10.891.377.064.783
1318,-1.85,-45.12,SERRANO DO MARANHAO - MA,SERRANO DO MARANHAO,MA,10.115.190.009.905
1319,-5.87,-46.69,SITIO NOVO - MA,SITIO NOVO,MA,10.672.459.142.474
1320,-6.47,-44.19,SUCUPIRA DO NORTE - MA,SUCUPIRA DO NORTE,MA,66.968.606.495.951
1321,-6.41,-43.54,SUCUPIRA DO RIACHAO - MA,SUCUPIRA DO RIACHAO,MA,24.719.813.102.947
1322,-8.47,-45.74,TASSO FRAGOSO - MA,TASSO FRAGOSO,MA,43.221.913.522.817
1323,-4.25,-43.94,TIMBIRAS - MA,TIMBIRAS,MA,16.238.868.359.836
1324,-5.09,-42.83,TIMON - MA,TIMON,MA,76.328.131.884.362
1325,-4.53,-44.62,TRIZIDELA DO VALE - MA,TRIZIDELA DO VALE,MA,10.423.913.517.906
1326,-3.72,-45.55,TUFILANDIA - MA,TUFILANDIA,MA,36.432.615.803.693
1327,-5.25,-44.64,TUNTUM - MA,TUNTUM,MA,21.922.517.412.039
1328,-1.66,-45.37,TURIACU - MA,TURIACU,MA,17.389.840.446.456
1329,-2.2,-45.34,TURILANDIA - MA,TURILANDIA,MA,11.539.499.788.164
1330,-2.76,-42.27,TUTOIA - MA,TUTOIA,MA,258.256.288.935
1331,-3.2,-43.4,URBANO SANTOS - MA,URBANO SANTOS,MA,13.032.067.004.607
1332,-3.54,-43.91,VARGEM GRANDE - MA,VARGEM GRANDE,MA,21.192.691.648.948
1333,-3.22,-45,VIANA - MA,VIANA,MA,28.286.337.045.437
1334,-4.98,-47.99,VILA NOVA DOS MARTIRIOS - MA,VILA NOVA DOS MARTIRIOS,MA,38.960.092.729.974
1335,-3.46,-44.87,VITORIA DO MEARIM - MA,VITORIA DO MEARIM,MA,15.889.816.527.448
1336,-4.04,-45.23,VITORINO FREIRE - MA,VITORINO FREIRE,MA,21.351.837.057.394
1337,-3.24,-45.82,ZE DOCA - MA,ZE DOCA,MA,27.355.134.695.879
1338,-18.48,-47.4,ABADIA DOS DOURADOS - MG,ABADIA DOS DOURADOS,MG,41.512.315.922.132
1339,-19.16,-45.44,ABAETE - MG,ABAETE,MG,15.047.491.618.275
1340,-20.3,-42.47,ABRE CAMPO - MG,ABRE CAMPO,MG,8.337.344.218.972
1341,-20.36,-43.14,ACAIACA - MG,ACAIACA,MG,25.204.858.323.775
1342,-19.07,-42.54,ACUCENA - MG,ACUCENA,MG,72.034.504.187.791
1343,-17.99,-42.38,AGUA BOA - MG,AGUA BOA,MG,10.260.181.894.871
1344,-20.05,-48.1,AGUA COMPRIDA - MG,AGUA COMPRIDA,MG,12.822.623.060.797
1345,-20.94,-45.39,AGUANIL - MG,AGUANIL,MG,22.182.122.377.755
1346,-17.08,-40.93,AGUAS FORMOSAS - MG,AGUAS FORMOSAS,MG,12.039.359.700.945
1347,-15.74,-41.46,AGUAS VERMELHAS - MG,AGUAS VERMELHAS,MG,73.549.212.934.626
1348,-19.49,-41.06,AIMORES - MG,AIMORES,MG,1.601.500.226.519
1349,-21.97,-44.6,AIURUOCA - MG,AIURUOCA,MG,419.886.288.527
1350,-22.17,-44.64,ALAGOA - MG,ALAGOA,MG,17.004.589.865.833
1351,-22.2,-46.61,ALBERTINA - MG,ALBERTINA,MG,1.750.870.690.578
1352,-21.88,-42.7,ALEM PARAIBA - MG,ALEM PARAIBA,MG,21.334.441.952.905
1353,-21.42,-45.94,ALFENAS - MG,ALFENAS,MG,36.085.219.099.035
1354,-21.14,-43.77,ALFREDO VASCONCELOS - MG,ALFREDO VASCONCELOS,MG,315.291.451.628
1355,-16.18,-40.69,ALMENARA - MG,ALMENARA,MG,21.576.580.008.769
1356,-18.97,-41.97,ALPERCATA - MG,ALPERCATA,MG,41.742.571.634.008
1357,-20.86,-46.38,ALPINOPOLIS - MG,ALPINOPOLIS,MG,94.984.081.890.258
1358,-21.24,-46.14,ALTEROSA - MG,ALTEROSA,MG,85.652.282.703.483
1359,-20.52,-41.89,ALTO CAPARAO - MG,ALTO CAPARAO,MG,2.363.521.964.298
1360,-20.42,-41.96,ALTO JEQUITIBA - MG,ALTO JEQUITIBA,MG,51.367.040.826.172
1361,-21.02,-43.41,ALTO RIO DOCE - MG,ALTO RIO DOCE,MG,80.435.409.020.823
1362,-19.41,-41.72,ALVARENGA - MG,ALVARENGA,MG,35.093.320.240.884
1363,-20.1,-43.04,ALVINOPOLIS - MG,ALVINOPOLIS,MG,97.104.284.907.138
1364,-18.73,-43.36,ALVORADA DE MINAS - MG,ALVORADA DE MINAS,MG,24.537.015.882.467
1365,-20.5,-42.8,AMPARO DO SERRA - MG,AMPARO DO SERRA,MG,38.107.535.014.215
1366,-22.06,-46.56,ANDRADAS - MG,ANDRADAS,MG,20.277.675.589.411
1367,-21.74,-44.3,ANDRELANDIA - MG,ANDRELANDIA,MG,77.529.142.581.063
1368,-17.6,-42.16,ANGELANDIA - MG,ANGELANDIA,MG,35.522.865.582.791
1369,-21.31,-43.74,ANTONIO CARLOS - MG,ANTONIO CARLOS,MG,71.060.059.258.533
1370,-19.65,-42.87,ANTONIO DIAS - MG,ANTONIO DIAS,MG,6.360.749.391.889
1371,-21.01,-42.1,ANTONIO PRADO DE MINAS - MG,ANTONIO PRADO DE MINAS,MG,12.356.271.298.257
1372,-19.19,-44.24,ARACAI - MG,ARACAI,MG,13.014.537.206.952
1373,-21.34,-43.37,ARACITABA - MG,ARACITABA,MG,15.892.745.943.351
1374,-16.85,-42.07,ARACUAI - MG,ARACUAI,MG,21.571.359.015.167
1375,-18.64,-48.18,ARAGUARI - MG,ARAGUARI,MG,61.621.900.529.255
1376,-21.91,-44.25,ARANTINA - MG,ARANTINA,MG,1.947.136.050.711
1377,-20.66,-42.52,ARAPONGA - MG,ARAPONGA,MG,4.710.073.267.321
1378,-18.43,-49.18,ARAPORA - MG,ARAPORA,MG,3.083.025.363.055
1379,-19.03,-46.15,ARAPUA - MG,ARAPUA,MG,18.842.883.694.555
1380,-19.94,-45.16,ARAUJOS - MG,ARAUJOS,MG,36.289.013.961.309
1381,-19.59,-46.94,ARAXA - MG,ARAXA,MG,49.422.302.289.925
1382,-21.36,-46.94,ARCEBURGO - MG,ARCEBURGO,MG,46.840.376.667.739
1383,-20.28,-45.53,ARCOS - MG,ARCOS,MG,1.956.651.006.056
1384,-21.35,-46.14,AREADO - MG,AREADO,MG,77.040.828.753.584
1385,-21.61,-42.83,ARGIRITA - MG,ARGIRITA,MG,19.265.218.594.955
1386,-17.86,-42.55,ARICANDUVA - MG,ARICANDUVA,MG,26.641.639.897.818
1387,-15.91,-46.1,ARINOS - MG,ARINOS,MG,11.841.564.963.452
1388,-21.31,-42.86,ASTOLFO DUTRA - MG,ASTOLFO DUTRA,MG,7.184.801.792.574
1389,-18.04,-41.11,ATALEIA - MG,ATALEIA,MG,10.540.745.255.998
1390,-18.1,-44.26,AUGUSTO DE LIMA - MG,AUGUSTO DE LIMA,MG,32.521.523.483.327
1391,-21.95,-44.89,BAEPENDI - MG,BAEPENDI,MG,11.203.058.829.538
1392,-19.28,-43.95,BALDIM - MG,BALDIM,MG,4.780.368.532.146
1393,-20,-45.97,BAMBUI - MG,BAMBUI,MG,13.234.018.638.277
1394,-15.88,-40.55,BANDEIRA - MG,BANDEIRA,MG,34.827.634.902.806
1395,-21.72,-46.38,BANDEIRA DO SUL - MG,BANDEIRA DO SUL,MG,28.948.130.201.018
1396,-19.94,-43.48,BARAO DE COCAIS - MG,BARAO DE COCAIS,MG,14.295.970.950.736
1397,-21.24,-42.23,BARAO DE MONTE ALTO - MG,BARAO DE MONTE ALTO,MG,38.366.981.109.277
1398,-21.22,-43.77,BARBACENA - MG,BARBACENA,MG,67.374.452.217.732
1399,-20.28,-43.04,BARRA LONGA - MG,BARRA LONGA,MG,51.720.450.747.021
1400,-21.18,-43.97,BARROSO - MG,BARROSO,MG,12.087.872.106.608
1401,-19.83,-43.09,BELA VISTA DE MINAS - MG,BELA VISTA DE MINAS,MG,62.232.650.894.049
1402,-21.94,-43.41,BELMIRO BRAGA - MG,BELMIRO BRAGA,MG,22.062.117.685.304
1403,-19.81,-43.95,BELO HORIZONTE - MG,BELO HORIZONTE,MG,2091448
1404,-19.22,-42.48,BELO ORIENTE - MG,BELO ORIENTE,MG,11.547.889.161.928
1405,-20.4,-44.02,BELO VALE - MG,BELO VALE,MG,44.963.959.627.444
1406,-16.95,-42.46,BERILO - MG,BERILO,MG,81.338.602.863.068
1407,-15.61,-41.74,BERIZAL - MG,BERIZAL,MG,20.124.820.001.505
1408,-17.06,-40.57,BERTOPOLIS - MG,BERTOPOLIS,MG,25.671.228.380.656
1409,-19.96,-44.19,BETIM - MG,BETIM,MG,16.128.903.928.993
1410,-21.6,-43.75,BIAS FORTES - MG,BIAS FORTES,MG,31.426.551.090.121
1411,-21.72,-43.05,BICAS - MG,BICAS,MG,74.523.089.149.037
1412,-18.78,-45.5,BIQUINHAS - MG,BIQUINHAS,MG,19.789.499.017.202
1413,-21.09,-45.56,BOA ESPERANCA - MG,BOA ESPERANCA,MG,22.668.287.115.032
1414,-22.16,-44.39,BOCAINA DE MINAS - MG,BOCAINA DE MINAS,MG,34.946.013.903.061
1415,-17.1,-43.81,BOCAIUVA - MG,BOCAIUVA,MG,2.571.528.661.336
1416,-19.73,-45.25,BOM DESPACHO - MG,BOM DESPACHO,MG,24.759.893.928.534
1417,-21.94,-44.19,BOM JARDIM DE MINAS - MG,BOM JARDIM DE MINAS,MG,44.135.577.646.765
1418,-21.01,-46.52,BOM JESUS DA PENHA - MG,BOM JESUS DA PENHA,MG,21.947.683.272.071
1419,-19.7,-43.47,BOM JESUS DO AMPARO - MG,BOM JESUS DO AMPARO,MG,30.414.124.242.335
1420,-19.82,-42.31,BOM JESUS DO GALHO - MG,BOM JESUS DO GALHO,MG,10.903.052.043.513
1421,-22.47,-46.14,BOM REPOUSO - MG,BOM REPOUSO,MG,73.222.755.026.576
1422,-21.03,-44.75,BOM SUCESSO - MG,BOM SUCESSO,MG,10.835.774.234.383
1423,-20.32,-44.23,BONFIM - MG,BONFIM,MG,46.532.293.748.136
1424,-16.56,-45.99,BONFINOPOLIS DE MINAS - MG,BONFINOPOLIS DE MINAS,MG,46.010.582.161.032
1425,-15.32,-44.75,BONITO DE MINAS - MG,BONITO DE MINAS,MG,49.354.653.978.762
1426,-22.27,-46.16,BORDA DA MATA - MG,BORDA DA MATA,MG,78.634.995.466.821
1427,-21.63,-46.39,BOTELHOS - MG,BOTELHOS,MG,10.130.134.607.872
1428,-16.87,-43.01,BOTUMIRIM - MG,BOTUMIRIM,MG,40.928.501.756.797
1429,-20.92,-43.24,BRAS PIRES - MG,BRAS PIRES,MG,36.407.691.080.885
1430,-17.01,-46,BRASILANDIA DE MINAS - MG,BRASILANDIA DE MINAS,MG,67.623.633.766.997
1431,-16.2,-44.42,BRASILIA DE MINAS - MG,BRASILIA DE MINAS,MG,1.860.246.236.538
1432,-22.47,-45.6,BRASOPOLIS - MG,BRASOPOLIS,MG,1.008.209.595.733
1433,-19.05,-42.71,BRAUNAS - MG,BRAUNAS,MG,38.419.399.534.233
1434,-20.14,-44.2,BRUMADINHO - MG,BRUMADINHO,MG,1.577.588.997.303
1435,-22.44,-46.35,BUENO BRANDAO - MG,BUENO BRANDAO,MG,66.685.024.877.058
1436,-17.87,-44.18,BUENOPOLIS - MG,BUENOPOLIS,MG,62.922.421.878.965
1437,-19.42,-42.24,BUGRE - MG,BUGRE,MG,26.461.267.263.343
1438,-15.61,-46.42,BURITIS - MG,BURITIS,MG,13.551.500.428.584
1439,-17.35,-44.96,BURITIZEIRO - MG,BURITIZEIRO,MG,16.021.462.090.819
1440,-16.03,-47.09,CABECEIRA GRANDE - MG,CABECEIRA GRANDE,MG,37.325.144.033.809
1441,-21.47,-46.39,CABO VERDE - MG,CABO VERDE,MG,7.801.878.292.423
1442,-19.52,-44.45,CACHOEIRA DA PRATA - MG,CACHOEIRA DA PRATA,MG,22.857.284.758.282
1443,-22.35,-45.77,CACHOEIRA DE MINAS - MG,CACHOEIRA DE MINAS,MG,59.375.305.897.955
1444,-15.96,-41.49,CACHOEIRA DE PAJEU - MG,CACHOEIRA DE PAJEU,MG,58.022.428.463.338
1445,-18.51,-49.5,CACHOEIRA DOURADA - MG,CACHOEIRA DOURADA,MG,14.716.379.649.919
1446,-19.29,-44.41,CAETANOPOLIS - MG,CAETANOPOLIS,MG,47.400.794.564.452
1447,-19.88,-43.67,CAETE - MG,CAETE,MG,22.705.316.324.171
1448,-20.69,-41.92,CAIANA - MG,CAIANA,MG,28.474.489.224.706
1449,-20.79,-42.79,CAJURI - MG,CAJURI,MG,25.238.941.244.516
1450,-21.92,-46.38,CALDAS - MG,CALDAS,MG,86.455.057.870.629
1451,-20.62,-45.15,CAMACHO - MG,CAMACHO,MG,2.252.675.283.365
1452,-22.75,-46.14,CAMANDUCAIA - MG,CAMANDUCAIA,MG,11.566.374.978.561
1453,-22.61,-46.05,CAMBUI - MG,CAMBUI,MG,13.452.814.727.268
1454,-21.85,-45.29,CAMBUQUIRA - MG,CAMBUQUIRA,MG,82.000.505.814.367
1455,-18.23,-41.74,CAMPANARIO - MG,CAMPANARIO,MG,20.511.282.657.392
1456,-21.83,-45.4,CAMPANHA - MG,CAMPANHA,MG,91.424.053.410.097
